{"type":"FeatureCollection","name":"Consolidado_total_rural_2023","crs":{"type":"name","properties":{"name":"urn:ogc:def:crs:EPSG::4686"}},"features":[{"type":"Feature","properties":{"OBJECTID":3361,"COD_MPIO":"15001","X_LONG":-73.4083000003,"Y_LAT":5.55633999989,"direccion_":"MZO BAJO PORTUGAL","DIRECC_NOR":null,"Fecha_actu":"2022-12-01","VEREDA_V1":"TRAS DEL ALTO","VEREDA_V2":"TRAS DEL ALTO","Criterio_u":null},"geometry":{"type":"Point","coordinates":[-73.4083,5.55634]}},{"type":"Feature","properties":{"OBJECTID":3363,"COD_MPIO":"15001","X_LONG":-73.3788967119,"Y_LAT":5.53996078506,"direccion_":"TV 18 20 94","DIRECC_NOR":null,"Fecha_actu":"2022-12-01","VEREDA_V1":"TRAS DEL ALTO","VEREDA_V2":"TRAS DEL ALTO","Criterio_u":null},"geometry":{"type":"Point","coordinates":[-73.378897,5.539961]}},{"type":"Feature","properties":{"OBJECTID":3365,"COD_MPIO":"15001","X_LONG":-73.3968470001,"Y_LAT":5.54740999997,"direccion_":"SAN MARCOS","DIRECC_NOR":null,"Fecha_actu":"2022-12-01","VEREDA_V1":"TRAS DEL ALTO","VEREDA_V2":"TRAS DEL ALTO","Criterio_u":null},"geometry":{"type":"Point","coordinates":[-73.396847,5.54741]}},{"type":"Feature","properties":{"OBJECTID":3366,"COD_MPIO":"15001","X_LONG":-73.3977959998,"Y_LAT":5.54616700021,"direccion_":"LA CALERA","DIRECC_NOR":null,"Fecha_actu":"2022-12-01","VEREDA_V1":"TRAS DEL ALTO","VEREDA_V2":"TRAS DEL ALTO","Criterio_u":null},"geometry":{"type":"Point","coordinates":[-73.397796,5.546167]}},{"type":"Feature","properties":{"OBJECTID":3367,"COD_MPIO":"15001","X_LONG":-73.4032359997,"Y_LAT":5.56154399976,"direccion_":"SAN FELIPE","DIRECC_NOR":null,"Fecha_actu":"2022-12-01","VEREDA_V1":"TRAS DEL ALTO","VEREDA_V2":"TRAS DEL ALTO","Criterio_u":null},"geometry":{"type":"Point","coordinates":[-73.403236,5.561544]}},{"type":"Feature","properties":{"OBJECTID":3369,"COD_MPIO":"15001","X_LONG":-73.4074899999,"Y_LAT":5.56278300024,"direccion_":"LA ISLA","DIRECC_NOR":null,"Fecha_actu":"2022-12-01","VEREDA_V1":"TRAS DEL ALTO","VEREDA_V2":"TRAS DEL ALTO","Criterio_u":null},"geometry":{"type":"Point","coordinates":[-73.40749,5.562783]}},{"type":"Feature","properties":{"OBJECTID":3370,"COD_MPIO":"15001","X_LONG":-73.4206729999,"Y_LAT":5.55768699996,"direccion_":"PORTUGAL","DIRECC_NOR":null,"Fecha_actu":"2022-12-01","VEREDA_V1":"TRAS DEL ALTO","VEREDA_V2":"TRAS DEL ALTO","Criterio_u":null},"geometry":{"type":"Point","coordinates":[-73.420673,5.557687]}},{"type":"Feature","properties":{"OBJECTID":3371,"COD_MPIO":"15001","X_LONG":-73.4156244919,"Y_LAT":5.5635127677,"direccion_":"EL CARARE","DIRECC_NOR":null,"Fecha_actu":"2022-12-01","VEREDA_V1":"TRAS DEL ALTO","VEREDA_V2":"TRAS DEL ALTO","Criterio_u":null},"geometry":{"type":"Point","coordinates":[-73.415624,5.563513]}},{"type":"Feature","properties":{"OBJECTID":3373,"COD_MPIO":"15001","X_LONG":-73.3841009996,"Y_LAT":5.5477399999,"direccion_":"EL TEJAR","DIRECC_NOR":null,"Fecha_actu":"2022-12-01","VEREDA_V1":"TRAS DEL ALTO","VEREDA_V2":"TRAS DEL ALTO","Criterio_u":null},"geometry":{"type":"Point","coordinates":[-73.384101,5.54774]}},{"type":"Feature","properties":{"OBJECTID":3374,"COD_MPIO":"15001","X_LONG":-73.3822729998,"Y_LAT":5.55621000019,"direccion_":"EL PENCO SECT BARBOSA","DIRECC_NOR":null,"Fecha_actu":"2022-12-01","VEREDA_V1":"TRAS DEL ALTO","VEREDA_V2":"TRAS DEL ALTO","Criterio_u":null},"geometry":{"type":"Point","coordinates":[-73.382273,5.55621]}},{"type":"Feature","properties":{"OBJECTID":3376,"COD_MPIO":"15001","X_LONG":-73.3949099998,"Y_LAT":5.54742699986,"direccion_":"VILLA ROCIO","DIRECC_NOR":null,"Fecha_actu":"2022-12-01","VEREDA_V1":"TRAS DEL ALTO","VEREDA_V2":"TRAS DEL ALTO","Criterio_u":null},"geometry":{"type":"Point","coordinates":[-73.39491,5.547427]}},{"type":"Feature","properties":{"OBJECTID":3378,"COD_MPIO":"15001","X_LONG":-73.4082649996,"Y_LAT":5.56449600009,"direccion_":"VILLA ROSITA","DIRECC_NOR":null,"Fecha_actu":"2022-12-01","VEREDA_V1":"TRAS DEL ALTO","VEREDA_V2":"TRAS DEL ALTO","Criterio_u":null},"geometry":{"type":"Point","coordinates":[-73.408265,5.564496]}},{"type":"Feature","properties":{"OBJECTID":3379,"COD_MPIO":"15001","X_LONG":-73.3746059997,"Y_LAT":5.54862900043,"direccion_":"VILLA LILA","DIRECC_NOR":null,"Fecha_actu":"2022-12-01","VEREDA_V1":"TRAS DEL ALTO","VEREDA_V2":"TRAS DEL ALTO","Criterio_u":null},"geometry":{"type":"Point","coordinates":[-73.374606,5.548629]}},{"type":"Feature","properties":{"OBJECTID":3380,"COD_MPIO":"15001","X_LONG":-73.3745230003,"Y_LAT":5.54970200045,"direccion_":"LA ESPETANZA","DIRECC_NOR":null,"Fecha_actu":"2022-12-01","VEREDA_V1":"TRAS DEL ALTO","VEREDA_V2":"TRAS DEL ALTO","Criterio_u":null},"geometry":{"type":"Point","coordinates":[-73.374523,5.549702]}},{"type":"Feature","properties":{"OBJECTID":3381,"COD_MPIO":"15001","X_LONG":-73.3772710003,"Y_LAT":5.55064399982,"direccion_":"EL PEDREGAL","DIRECC_NOR":null,"Fecha_actu":"2022-12-01","VEREDA_V1":"TRAS DEL ALTO","VEREDA_V2":"TRAS DEL ALTO","Criterio_u":null},"geometry":{"type":"Point","coordinates":[-73.377271,5.550644]}},{"type":"Feature","properties":{"OBJECTID":3382,"COD_MPIO":"15001","X_LONG":-73.4031080001,"Y_LAT":5.54933999994,"direccion_":"CENTRO DE SALUD","DIRECC_NOR":null,"Fecha_actu":"2022-12-01","VEREDA_V1":"TRAS DEL ALTO","VEREDA_V2":"TRAS DEL ALTO","Criterio_u":null},"geometry":{"type":"Point","coordinates":[-73.403108,5.54934]}},{"type":"Feature","properties":{"OBJECTID":3384,"COD_MPIO":"15001","X_LONG":-73.4128509998,"Y_LAT":5.56148399969,"direccion_":"LAS VIGAS","DIRECC_NOR":null,"Fecha_actu":"2022-12-01","VEREDA_V1":"TRAS DEL ALTO","VEREDA_V2":"TRAS DEL ALTO","Criterio_u":null},"geometry":{"type":"Point","coordinates":[-73.412851,5.561484]}},{"type":"Feature","properties":{"OBJECTID":3387,"COD_MPIO":"15001","X_LONG":-73.3736349999,"Y_LAT":5.54806300041,"direccion_":"LA CASONA","DIRECC_NOR":null,"Fecha_actu":"2022-12-01","VEREDA_V1":"TRAS DEL ALTO","VEREDA_V2":"TRAS DEL ALTO","Criterio_u":null},"geometry":{"type":"Point","coordinates":[-73.373635,5.548063]}},{"type":"Feature","properties":{"OBJECTID":3388,"COD_MPIO":"15001","X_LONG":-73.3757159996,"Y_LAT":5.55143500033,"direccion_":"LA CANTERA DEL TRIANGULO","DIRECC_NOR":null,"Fecha_actu":"2022-12-01","VEREDA_V1":"TRAS DEL ALTO","VEREDA_V2":"TRAS DEL ALTO","Criterio_u":null},"geometry":{"type":"Point","coordinates":[-73.375716,5.551435]}},{"type":"Feature","properties":{"OBJECTID":3389,"COD_MPIO":"15001","X_LONG":-73.4091659998,"Y_LAT":5.5604679996,"direccion_":"LA DESPENCITA","DIRECC_NOR":null,"Fecha_actu":"2022-12-01","VEREDA_V1":"TRAS DEL ALTO","VEREDA_V2":"TRAS DEL ALTO","Criterio_u":null},"geometry":{"type":"Point","coordinates":[-73.409166,5.560468]}},{"type":"Feature","properties":{"OBJECTID":3390,"COD_MPIO":"15001","X_LONG":-73.4221468574,"Y_LAT":5.54824785695,"direccion_":"LA LUCHA","DIRECC_NOR":null,"Fecha_actu":"2022-12-01","VEREDA_V1":"TRAS DEL ALTO","VEREDA_V2":"TRAS DEL ALTO","Criterio_u":null},"geometry":{"type":"Point","coordinates":[-73.422147,5.548248]}},{"type":"Feature","properties":{"OBJECTID":3392,"COD_MPIO":"15001","X_LONG":-73.410671,"Y_LAT":5.55812200023,"direccion_":"PAYANDE","DIRECC_NOR":null,"Fecha_actu":"2022-12-01","VEREDA_V1":"TRAS DEL ALTO","VEREDA_V2":"TRAS DEL ALTO","Criterio_u":null},"geometry":{"type":"Point","coordinates":[-73.410671,5.558122]}},{"type":"Feature","properties":{"OBJECTID":3394,"COD_MPIO":"15001","X_LONG":-73.4259060002,"Y_LAT":5.55596799982,"direccion_":"LA SIERRA","DIRECC_NOR":null,"Fecha_actu":"2022-12-01","VEREDA_V1":"TRAS DEL ALTO","VEREDA_V2":"TRAS DEL ALTO","Criterio_u":null},"geometry":{"type":"Point","coordinates":[-73.425906,5.555968]}},{"type":"Feature","properties":{"OBJECTID":3397,"COD_MPIO":"15001","X_LONG":-73.3902160001,"Y_LAT":5.54398500031,"direccion_":"EL GUAYABITI","DIRECC_NOR":null,"Fecha_actu":"2022-12-01","VEREDA_V1":"TRAS DEL ALTO","VEREDA_V2":"TRAS DEL ALTO","Criterio_u":null},"geometry":{"type":"Point","coordinates":[-73.390216,5.543985]}},{"type":"Feature","properties":{"OBJECTID":3398,"COD_MPIO":"15001","X_LONG":-73.3854694107,"Y_LAT":5.55938792911,"direccion_":"EL PLANETARIO","DIRECC_NOR":null,"Fecha_actu":"2022-12-01","VEREDA_V1":"TRAS DEL ALTO","VEREDA_V2":"TRAS DEL ALTO","Criterio_u":null},"geometry":{"type":"Point","coordinates":[-73.385469,5.559388]}},{"type":"Feature","properties":{"OBJECTID":3399,"COD_MPIO":"15001","X_LONG":-73.4092690001,"Y_LAT":5.55515900029,"direccion_":"LA CANDELARIA","DIRECC_NOR":null,"Fecha_actu":"2022-12-01","VEREDA_V1":"TRAS DEL ALTO","VEREDA_V2":"TRAS DEL ALTO","Criterio_u":null},"geometry":{"type":"Point","coordinates":[-73.409269,5.555159]}},{"type":"Feature","properties":{"OBJECTID":3400,"COD_MPIO":"15001","X_LONG":-73.4067699999,"Y_LAT":5.55538800006,"direccion_":"LA PEDRERA","DIRECC_NOR":null,"Fecha_actu":"2022-12-01","VEREDA_V1":"TRAS DEL ALTO","VEREDA_V2":"TRAS DEL ALTO","Criterio_u":null},"geometry":{"type":"Point","coordinates":[-73.40677,5.555388]}},{"type":"Feature","properties":{"OBJECTID":3403,"COD_MPIO":"15001","X_LONG":-73.4054670001,"Y_LAT":5.55423800008,"direccion_":"SAN ALFONSO","DIRECC_NOR":null,"Fecha_actu":"2022-12-01","VEREDA_V1":"TRAS DEL ALTO","VEREDA_V2":"TRAS DEL ALTO","Criterio_u":null},"geometry":{"type":"Point","coordinates":[-73.405467,5.554238]}},{"type":"Feature","properties":{"OBJECTID":3404,"COD_MPIO":"15001","X_LONG":-73.4148716973,"Y_LAT":5.56024338403,"direccion_":"VALPARAISO","DIRECC_NOR":null,"Fecha_actu":"2022-12-01","VEREDA_V1":"TRAS DEL ALTO","VEREDA_V2":"TRAS DEL ALTO","Criterio_u":null},"geometry":{"type":"Point","coordinates":[-73.414872,5.560243]}},{"type":"Feature","properties":{"OBJECTID":3407,"COD_MPIO":"15001","X_LONG":-73.3819229998,"Y_LAT":5.55483799987,"direccion_":"LA SIBERIA","DIRECC_NOR":null,"Fecha_actu":"2022-12-01","VEREDA_V1":"TRAS DEL ALTO","VEREDA_V2":"TRAS DEL ALTO","Criterio_u":null},"geometry":{"type":"Point","coordinates":[-73.381923,5.554838]}},{"type":"Feature","properties":{"OBJECTID":3408,"COD_MPIO":"15001","X_LONG":-73.4211739996,"Y_LAT":5.56043399983,"direccion_":"SAN MIGUEL","DIRECC_NOR":null,"Fecha_actu":"2022-12-01","VEREDA_V1":"TRAS DEL ALTO","VEREDA_V2":"TRAS DEL ALTO","Criterio_u":null},"geometry":{"type":"Point","coordinates":[-73.421174,5.560434]}},{"type":"Feature","properties":{"OBJECTID":3412,"COD_MPIO":"15001","X_LONG":-73.3898424981,"Y_LAT":5.5542902489,"direccion_":"EL TABLON","DIRECC_NOR":null,"Fecha_actu":"2022-12-01","VEREDA_V1":"TRAS DEL ALTO","VEREDA_V2":"TRAS DEL ALTO","Criterio_u":null},"geometry":{"type":"Point","coordinates":[-73.389842,5.55429]}},{"type":"Feature","properties":{"OBJECTID":3413,"COD_MPIO":"15001","X_LONG":-73.4185219996,"Y_LAT":5.55295100009,"direccion_":"SAN PEDRO","DIRECC_NOR":null,"Fecha_actu":"2022-12-01","VEREDA_V1":"TRAS DEL ALTO","VEREDA_V2":"TRAS DEL ALTO","Criterio_u":null},"geometry":{"type":"Point","coordinates":[-73.418522,5.552951]}},{"type":"Feature","properties":{"OBJECTID":3414,"COD_MPIO":"15001","X_LONG":-73.4127470004,"Y_LAT":5.56291700012,"direccion_":"LAS LOMITAS","DIRECC_NOR":null,"Fecha_actu":"2022-12-01","VEREDA_V1":"TRAS DEL ALTO","VEREDA_V2":"TRAS DEL ALTO","Criterio_u":null},"geometry":{"type":"Point","coordinates":[-73.412747,5.562917]}},{"type":"Feature","properties":{"OBJECTID":3415,"COD_MPIO":"15001","X_LONG":-73.3749221617,"Y_LAT":5.55649243768,"direccion_":"SAN FRANCISCO","DIRECC_NOR":null,"Fecha_actu":"2022-12-01","VEREDA_V1":"TRAS DEL ALTO","VEREDA_V2":"TRAS DEL ALTO","Criterio_u":null},"geometry":{"type":"Point","coordinates":[-73.374922,5.556492]}},{"type":"Feature","properties":{"OBJECTID":3416,"COD_MPIO":"15001","X_LONG":-73.4081460004,"Y_LAT":5.5556490004,"direccion_":"EL KIOSKO","DIRECC_NOR":null,"Fecha_actu":"2022-12-01","VEREDA_V1":"TRAS DEL ALTO","VEREDA_V2":"TRAS DEL ALTO","Criterio_u":null},"geometry":{"type":"Point","coordinates":[-73.408146,5.555649]}},{"type":"Feature","properties":{"OBJECTID":3417,"COD_MPIO":"15001","X_LONG":-73.3935530002,"Y_LAT":5.55595400008,"direccion_":"LOS LAMBEDEROS","DIRECC_NOR":null,"Fecha_actu":"2022-12-01","VEREDA_V1":"TRAS DEL ALTO","VEREDA_V2":"TRAS DEL ALTO","Criterio_u":null},"geometry":{"type":"Point","coordinates":[-73.393553,5.555954]}},{"type":"Feature","properties":{"OBJECTID":3419,"COD_MPIO":"15001","X_LONG":-73.398659,"Y_LAT":5.55974300034,"direccion_":"EL CEBADERO","DIRECC_NOR":null,"Fecha_actu":"2022-12-01","VEREDA_V1":"TRAS DEL ALTO","VEREDA_V2":"TRAS DEL ALTO","Criterio_u":null},"geometry":{"type":"Point","coordinates":[-73.398659,5.559743]}},{"type":"Feature","properties":{"OBJECTID":3420,"COD_MPIO":"15001","X_LONG":-73.3889249999,"Y_LAT":5.54406100022,"direccion_":"SAN CARLOS","DIRECC_NOR":null,"Fecha_actu":"2022-12-01","VEREDA_V1":"TRAS DEL ALTO","VEREDA_V2":"TRAS DEL ALTO","Criterio_u":null},"geometry":{"type":"Point","coordinates":[-73.388925,5.544061]}},{"type":"Feature","properties":{"OBJECTID":3421,"COD_MPIO":"15001","X_LONG":-73.41346,"Y_LAT":5.56116500026,"direccion_":"AIRE EL ESPINO","DIRECC_NOR":null,"Fecha_actu":"2022-12-01","VEREDA_V1":"TRAS DEL ALTO","VEREDA_V2":"TRAS DEL ALTO","Criterio_u":null},"geometry":{"type":"Point","coordinates":[-73.41346,5.561165]}},{"type":"Feature","properties":{"OBJECTID":3423,"COD_MPIO":"15001","X_LONG":-73.3844700004,"Y_LAT":5.55656600042,"direccion_":"SAN JUAN","DIRECC_NOR":null,"Fecha_actu":"2022-12-01","VEREDA_V1":"TRAS DEL ALTO","VEREDA_V2":"TRAS DEL ALTO","Criterio_u":null},"geometry":{"type":"Point","coordinates":[-73.38447,5.556566]}},{"type":"Feature","properties":{"OBJECTID":3425,"COD_MPIO":"15001","X_LONG":-73.4023860001,"Y_LAT":5.54679200025,"direccion_":"EL PARAISO","DIRECC_NOR":null,"Fecha_actu":"2022-12-01","VEREDA_V1":"TRAS DEL ALTO","VEREDA_V2":"TRAS DEL ALTO","Criterio_u":null},"geometry":{"type":"Point","coordinates":[-73.402386,5.546792]}},{"type":"Feature","properties":{"OBJECTID":3427,"COD_MPIO":"15001","X_LONG":-73.4012940001,"Y_LAT":5.55839400018,"direccion_":"AGUA REGADA","DIRECC_NOR":null,"Fecha_actu":"2022-12-01","VEREDA_V1":"TRAS DEL ALTO","VEREDA_V2":"TRAS DEL ALTO","Criterio_u":null},"geometry":{"type":"Point","coordinates":[-73.401294,5.558394]}},{"type":"Feature","properties":{"OBJECTID":3428,"COD_MPIO":"15001","X_LONG":-73.39277,"Y_LAT":5.55396700018,"direccion_":"LOS BARRANCOS","DIRECC_NOR":null,"Fecha_actu":"2022-12-01","VEREDA_V1":"TRAS DEL ALTO","VEREDA_V2":"TRAS DEL ALTO","Criterio_u":null},"geometry":{"type":"Point","coordinates":[-73.39277,5.553967]}},{"type":"Feature","properties":{"OBJECTID":3431,"COD_MPIO":"15001","X_LONG":-73.4245270004,"Y_LAT":5.55113299989,"direccion_":"SAN RAFAEL","DIRECC_NOR":null,"Fecha_actu":"2022-12-01","VEREDA_V1":"TRAS DEL ALTO","VEREDA_V2":"TRAS DEL ALTO","Criterio_u":null},"geometry":{"type":"Point","coordinates":[-73.424527,5.551133]}},{"type":"Feature","properties":{"OBJECTID":3432,"COD_MPIO":"15001","X_LONG":-73.413305,"Y_LAT":5.56118600033,"direccion_":"LAS VILLITAS","DIRECC_NOR":null,"Fecha_actu":"2022-12-01","VEREDA_V1":"TRAS DEL ALTO","VEREDA_V2":"TRAS DEL ALTO","Criterio_u":null},"geometry":{"type":"Point","coordinates":[-73.413305,5.561186]}},{"type":"Feature","properties":{"OBJECTID":3433,"COD_MPIO":"15001","X_LONG":-73.4038039999,"Y_LAT":5.55481199957,"direccion_":"LA CASTELLANA","DIRECC_NOR":null,"Fecha_actu":"2022-12-01","VEREDA_V1":"TRAS DEL ALTO","VEREDA_V2":"TRAS DEL ALTO","Criterio_u":null},"geometry":{"type":"Point","coordinates":[-73.403804,5.554812]}},{"type":"Feature","properties":{"OBJECTID":3434,"COD_MPIO":"15001","X_LONG":-73.3983608217,"Y_LAT":5.55577789214,"direccion_":"LA MESETA","DIRECC_NOR":null,"Fecha_actu":"2022-12-01","VEREDA_V1":"TRAS DEL ALTO","VEREDA_V2":"TRAS DEL ALTO","Criterio_u":null},"geometry":{"type":"Point","coordinates":[-73.398361,5.555778]}},{"type":"Feature","properties":{"OBJECTID":3435,"COD_MPIO":"15001","X_LONG":-73.4039759997,"Y_LAT":5.55271299991,"direccion_":"OJO DE AGUA CLARA","DIRECC_NOR":null,"Fecha_actu":"2022-12-01","VEREDA_V1":"TRAS DEL ALTO","VEREDA_V2":"TRAS DEL ALTO","Criterio_u":null},"geometry":{"type":"Point","coordinates":[-73.403976,5.552713]}},{"type":"Feature","properties":{"OBJECTID":3439,"COD_MPIO":"15001","X_LONG":-73.4081569461,"Y_LAT":5.55938174087,"direccion_":"LA PROVIDENCIA","DIRECC_NOR":null,"Fecha_actu":"2022-12-01","VEREDA_V1":"TRAS DEL ALTO","VEREDA_V2":"TRAS DEL ALTO","Criterio_u":null},"geometry":{"type":"Point","coordinates":[-73.408157,5.559382]}},{"type":"Feature","properties":{"OBJECTID":3440,"COD_MPIO":"15001","X_LONG":-73.3935183565,"Y_LAT":5.5479612592,"direccion_":"EL RECUERDO Y LA CRUZ","DIRECC_NOR":null,"Fecha_actu":"2022-12-01","VEREDA_V1":"TRAS DEL ALTO","VEREDA_V2":"TRAS DEL ALTO","Criterio_u":null},"geometry":{"type":"Point","coordinates":[-73.393518,5.547961]}},{"type":"Feature","properties":{"OBJECTID":3441,"COD_MPIO":"15001","X_LONG":-73.3780229999,"Y_LAT":5.54329499996,"direccion_":"LOS APOCENTOS","DIRECC_NOR":null,"Fecha_actu":"2022-12-01","VEREDA_V1":"TRAS DEL ALTO","VEREDA_V2":"TRAS DEL ALTO","Criterio_u":null},"geometry":{"type":"Point","coordinates":[-73.378023,5.543295]}},{"type":"Feature","properties":{"OBJECTID":3442,"COD_MPIO":"15001","X_LONG":-73.3893739999,"Y_LAT":5.54869800001,"direccion_":"EL CARMEN","DIRECC_NOR":null,"Fecha_actu":"2022-12-01","VEREDA_V1":"TRAS DEL ALTO","VEREDA_V2":"TRAS DEL ALTO","Criterio_u":null},"geometry":{"type":"Point","coordinates":[-73.389374,5.548698]}},{"type":"Feature","properties":{"OBJECTID":3443,"COD_MPIO":"15001","X_LONG":-73.4142270003,"Y_LAT":5.55614399985,"direccion_":"SANTA MARTA","DIRECC_NOR":null,"Fecha_actu":"2022-12-01","VEREDA_V1":"TRAS DEL ALTO","VEREDA_V2":"TRAS DEL ALTO","Criterio_u":null},"geometry":{"type":"Point","coordinates":[-73.414227,5.556144]}},{"type":"Feature","properties":{"OBJECTID":3444,"COD_MPIO":"15001","X_LONG":-73.4106649997,"Y_LAT":5.56637100022,"direccion_":"EL ESPINO","DIRECC_NOR":null,"Fecha_actu":"2022-12-01","VEREDA_V1":"TRAS DEL ALTO","VEREDA_V2":"TRAS DEL ALTO","Criterio_u":null},"geometry":{"type":"Point","coordinates":[-73.410665,5.566371]}},{"type":"Feature","properties":{"OBJECTID":3445,"COD_MPIO":"15001","X_LONG":-73.3925230003,"Y_LAT":5.54876799964,"direccion_":"LA CRUZ DEL ALTO","DIRECC_NOR":null,"Fecha_actu":"2022-12-01","VEREDA_V1":"TRAS DEL ALTO","VEREDA_V2":"TRAS DEL ALTO","Criterio_u":null},"geometry":{"type":"Point","coordinates":[-73.392523,5.548768]}},{"type":"Feature","properties":{"OBJECTID":3446,"COD_MPIO":"15001","X_LONG":-73.4250179997,"Y_LAT":5.55179399979,"direccion_":"VILLA NUEVA","DIRECC_NOR":null,"Fecha_actu":"2022-12-01","VEREDA_V1":"TRAS DEL ALTO","VEREDA_V2":"TRAS DEL ALTO","Criterio_u":null},"geometry":{"type":"Point","coordinates":[-73.425018,5.551794]}},{"type":"Feature","properties":{"OBJECTID":3448,"COD_MPIO":"15001","X_LONG":-73.3952750004,"Y_LAT":5.5470640002,"direccion_":"EL DIVIDIVI","DIRECC_NOR":null,"Fecha_actu":"2022-12-01","VEREDA_V1":"TRAS DEL ALTO","VEREDA_V2":"TRAS DEL ALTO","Criterio_u":null},"geometry":{"type":"Point","coordinates":[-73.395275,5.547064]}},{"type":"Feature","properties":{"OBJECTID":3450,"COD_MPIO":"15001","X_LONG":-73.3868422591,"Y_LAT":5.55651951896,"direccion_":"MATA DE ROSA","DIRECC_NOR":null,"Fecha_actu":"2022-12-01","VEREDA_V1":"TRAS DEL ALTO","VEREDA_V2":"TRAS DEL ALTO","Criterio_u":null},"geometry":{"type":"Point","coordinates":[-73.386842,5.55652]}},{"type":"Feature","properties":{"OBJECTID":3451,"COD_MPIO":"15001","X_LONG":-73.4055260001,"Y_LAT":5.54995799966,"direccion_":"EL COLUMPIO","DIRECC_NOR":null,"Fecha_actu":"2022-12-01","VEREDA_V1":"TRAS DEL ALTO","VEREDA_V2":"TRAS DEL ALTO","Criterio_u":null},"geometry":{"type":"Point","coordinates":[-73.405526,5.549958]}},{"type":"Feature","properties":{"OBJECTID":3453,"COD_MPIO":"15001","X_LONG":-73.3825170003,"Y_LAT":5.55717599977,"direccion_":"EL PENCO","DIRECC_NOR":null,"Fecha_actu":"2022-12-01","VEREDA_V1":"TRAS DEL ALTO","VEREDA_V2":"TRAS DEL ALTO","Criterio_u":null},"geometry":{"type":"Point","coordinates":[-73.382517,5.557176]}},{"type":"Feature","properties":{"OBJECTID":3454,"COD_MPIO":"15001","X_LONG":-73.4180359997,"Y_LAT":5.55493900003,"direccion_":"FLORENCIA","DIRECC_NOR":null,"Fecha_actu":"2022-12-01","VEREDA_V1":"TRAS DEL ALTO","VEREDA_V2":"TRAS DEL ALTO","Criterio_u":null},"geometry":{"type":"Point","coordinates":[-73.418036,5.554939]}},{"type":"Feature","properties":{"OBJECTID":3455,"COD_MPIO":"15001","X_LONG":-73.4178300001,"Y_LAT":5.5571290003,"direccion_":"RL MZITO","DIRECC_NOR":null,"Fecha_actu":"2022-12-01","VEREDA_V1":"TRAS DEL ALTO","VEREDA_V2":"TRAS DEL ALTO","Criterio_u":null},"geometry":{"type":"Point","coordinates":[-73.41783,5.557129]}},{"type":"Feature","properties":{"OBJECTID":3456,"COD_MPIO":"15001","X_LONG":-73.3747269999,"Y_LAT":5.54704600027,"direccion_":"LA FORTUNA","DIRECC_NOR":null,"Fecha_actu":"2022-12-01","VEREDA_V1":"TRAS DEL ALTO","VEREDA_V2":"TRAS DEL ALTO","Criterio_u":null},"geometry":{"type":"Point","coordinates":[-73.374727,5.547046]}},{"type":"Feature","properties":{"OBJECTID":3457,"COD_MPIO":"15001","X_LONG":-73.4096010001,"Y_LAT":5.5564030001,"direccion_":"EL GRADO","DIRECC_NOR":null,"Fecha_actu":"2022-12-01","VEREDA_V1":"TRAS DEL ALTO","VEREDA_V2":"TRAS DEL ALTO","Criterio_u":null},"geometry":{"type":"Point","coordinates":[-73.409601,5.556403]}},{"type":"Feature","properties":{"OBJECTID":3458,"COD_MPIO":"15001","X_LONG":-73.4172638418,"Y_LAT":5.54859980484,"direccion_":"CUEVA DEL ZORRO","DIRECC_NOR":null,"Fecha_actu":"2022-12-01","VEREDA_V1":"TRAS DEL ALTO","VEREDA_V2":"TRAS DEL ALTO","Criterio_u":null},"geometry":{"type":"Point","coordinates":[-73.417264,5.5486]}},{"type":"Feature","properties":{"OBJECTID":3459,"COD_MPIO":"15001","X_LONG":-73.3822763839,"Y_LAT":5.54785780479,"direccion_":"EL PAJAR","DIRECC_NOR":null,"Fecha_actu":"2022-12-01","VEREDA_V1":"TRAS DEL ALTO","VEREDA_V2":"TRAS DEL ALTO","Criterio_u":null},"geometry":{"type":"Point","coordinates":[-73.382276,5.547858]}},{"type":"Feature","properties":{"OBJECTID":3460,"COD_MPIO":"15001","X_LONG":-73.4023609999,"Y_LAT":5.54819600025,"direccion_":"LA FLORENCIA","DIRECC_NOR":null,"Fecha_actu":"2022-12-01","VEREDA_V1":"TRAS DEL ALTO","VEREDA_V2":"TRAS DEL ALTO","Criterio_u":null},"geometry":{"type":"Point","coordinates":[-73.402361,5.548196]}},{"type":"Feature","properties":{"OBJECTID":3461,"COD_MPIO":"15001","X_LONG":-73.4016050001,"Y_LAT":5.54922700013,"direccion_":"FLIRENCIA","DIRECC_NOR":null,"Fecha_actu":"2022-12-01","VEREDA_V1":"TRAS DEL ALTO","VEREDA_V2":"TRAS DEL ALTO","Criterio_u":null},"geometry":{"type":"Point","coordinates":[-73.401605,5.549227]}},{"type":"Feature","properties":{"OBJECTID":3465,"COD_MPIO":"15001","X_LONG":-73.4109644649,"Y_LAT":5.56077387521,"direccion_":"SANTA ELENA","DIRECC_NOR":null,"Fecha_actu":"2022-12-01","VEREDA_V1":"TRAS DEL ALTO","VEREDA_V2":"TRAS DEL ALTO","Criterio_u":null},"geometry":{"type":"Point","coordinates":[-73.410964,5.560774]}},{"type":"Feature","properties":{"OBJECTID":3466,"COD_MPIO":"15001","X_LONG":-73.3753889998,"Y_LAT":5.54628500025,"direccion_":"CA PAREDES BLANCAS TECHO ROJO","DIRECC_NOR":null,"Fecha_actu":"2022-12-01","VEREDA_V1":"TRAS DEL ALTO","VEREDA_V2":"TRAS DEL ALTO","Criterio_u":null},"geometry":{"type":"Point","coordinates":[-73.375389,5.546285]}},{"type":"Feature","properties":{"OBJECTID":3468,"COD_MPIO":"15001","X_LONG":-73.3751880004,"Y_LAT":5.54716600041,"direccion_":"CA PUERTAS BLANCAS PAREDES PANETADAS SIN PINTAR 1 PI","DIRECC_NOR":null,"Fecha_actu":"2022-12-01","VEREDA_V1":"TRAS DEL ALTO","VEREDA_V2":"TRAS DEL ALTO","Criterio_u":null},"geometry":{"type":"Point","coordinates":[-73.375188,5.547166]}},{"type":"Feature","properties":{"OBJECTID":3469,"COD_MPIO":"15001","X_LONG":-73.3752879996,"Y_LAT":5.54634400028,"direccion_":"CA PAREDES AZUL Y NARANJA PUERTA BLANCA","DIRECC_NOR":null,"Fecha_actu":"2022-12-01","VEREDA_V1":"TRAS DEL ALTO","VEREDA_V2":"TRAS DEL ALTO","Criterio_u":null},"geometry":{"type":"Point","coordinates":[-73.375288,5.546344]}},{"type":"Feature","properties":{"OBJECTID":3472,"COD_MPIO":"15001","X_LONG":-73.3756019997,"Y_LAT":5.54454199991,"direccion_":"CA PUERTA BLANCA TECHO METALICO","DIRECC_NOR":null,"Fecha_actu":"2022-12-01","VEREDA_V1":"TRAS DEL ALTO","VEREDA_V2":"TRAS DEL ALTO","Criterio_u":null},"geometry":{"type":"Point","coordinates":[-73.375602,5.544542]}},{"type":"Feature","properties":{"OBJECTID":3473,"COD_MPIO":"15001","X_LONG":-73.3734739996,"Y_LAT":5.54628500025,"direccion_":"CA PAREDES BLANCAS TECHO DETERIORADO","DIRECC_NOR":null,"Fecha_actu":"2022-12-01","VEREDA_V1":"TRAS DEL ALTO","VEREDA_V2":"TRAS DEL ALTO","Criterio_u":null},"geometry":{"type":"Point","coordinates":[-73.373474,5.546285]}},{"type":"Feature","properties":{"OBJECTID":3475,"COD_MPIO":"15001","X_LONG":-73.3753689998,"Y_LAT":5.54803099983,"direccion_":"CA PAREDES BLANCAS PUERTAS GRISES 1 PI","DIRECC_NOR":null,"Fecha_actu":"2022-12-01","VEREDA_V1":"TRAS DEL ALTO","VEREDA_V2":"TRAS DEL ALTO","Criterio_u":null},"geometry":{"type":"Point","coordinates":[-73.375369,5.548031]}},{"type":"Feature","properties":{"OBJECTID":3476,"COD_MPIO":"15001","X_LONG":-73.3752400001,"Y_LAT":5.54737300006,"direccion_":"CA PUERTA BLANCA LADRILLO A LA VISTA 2 PI","DIRECC_NOR":null,"Fecha_actu":"2022-12-01","VEREDA_V1":"TRAS DEL ALTO","VEREDA_V2":"TRAS DEL ALTO","Criterio_u":null},"geometry":{"type":"Point","coordinates":[-73.37524,5.547373]}},{"type":"Feature","properties":{"OBJECTID":3481,"COD_MPIO":"15001","X_LONG":-73.3751129997,"Y_LAT":5.54738599976,"direccion_":"CA PAREDES MORADAS CN BORDE BLANCO VENTANAS VERDES","DIRECC_NOR":null,"Fecha_actu":"2022-12-01","VEREDA_V1":"TRAS DEL ALTO","VEREDA_V2":"TRAS DEL ALTO","Criterio_u":null},"geometry":{"type":"Point","coordinates":[-73.375113,5.547386]}},{"type":"Feature","properties":{"OBJECTID":3483,"COD_MPIO":"15001","X_LONG":-73.3753689998,"Y_LAT":5.54794699955,"direccion_":"CA LADRILLO A LA VISTA 2 PUERTAS BLANCAS","DIRECC_NOR":null,"Fecha_actu":"2022-12-01","VEREDA_V1":"TRAS DEL ALTO","VEREDA_V2":"TRAS DEL ALTO","Criterio_u":null},"geometry":{"type":"Point","coordinates":[-73.375369,5.547947]}},{"type":"Feature","properties":{"OBJECTID":3489,"COD_MPIO":"15001","X_LONG":-73.3754479998,"Y_LAT":5.54738199958,"direccion_":"CA TECHO ROJO PUERTA NEGRA EN ESCALONES","DIRECC_NOR":null,"Fecha_actu":"2022-12-01","VEREDA_V1":"TRAS DEL ALTO","VEREDA_V2":"TRAS DEL ALTO","Criterio_u":null},"geometry":{"type":"Point","coordinates":[-73.375448,5.547382]}},{"type":"Feature","properties":{"OBJECTID":3494,"COD_MPIO":"15001","X_LONG":-73.377873439,"Y_LAT":5.55512682434,"direccion_":"MEDIA LUNA","DIRECC_NOR":null,"Fecha_actu":"2022-12-01","VEREDA_V1":"TRAS DEL ALTO","VEREDA_V2":"TRAS DEL ALTO","Criterio_u":null},"geometry":{"type":"Point","coordinates":[-73.377873,5.555127]}},{"type":"Feature","properties":{"OBJECTID":3496,"COD_MPIO":"15001","X_LONG":-73.4051174003,"Y_LAT":5.55312242976,"direccion_":"XXX","DIRECC_NOR":null,"Fecha_actu":"2022-12-01","VEREDA_V1":"TRAS DEL ALTO","VEREDA_V2":"TRAS DEL ALTO","Criterio_u":null},"geometry":{"type":"Point","coordinates":[-73.405117,5.553122]}},{"type":"Feature","properties":{"OBJECTID":3497,"COD_MPIO":"15001","X_LONG":-73.37525608,"Y_LAT":5.54732809961,"direccion_":"TERRENO","DIRECC_NOR":null,"Fecha_actu":"2022-12-01","VEREDA_V1":"TRAS DEL ALTO","VEREDA_V2":"TRAS DEL ALTO","Criterio_u":null},"geometry":{"type":"Point","coordinates":[-73.375256,5.547328]}},{"type":"Feature","properties":{"OBJECTID":3504,"COD_MPIO":"15001","X_LONG":-73.4078480901,"Y_LAT":5.55428298957,"direccion_":"LA PEDRERA LC 9","DIRECC_NOR":null,"Fecha_actu":"2022-12-01","VEREDA_V1":"TRAS DEL ALTO","VEREDA_V2":"TRAS DEL ALTO","Criterio_u":null},"geometry":{"type":"Point","coordinates":[-73.407848,5.554283]}},{"type":"Feature","properties":{"OBJECTID":3505,"COD_MPIO":"15001","X_LONG":-73.4098110035,"Y_LAT":5.55830060739,"direccion_":"SAN VICENTE","DIRECC_NOR":null,"Fecha_actu":"2022-12-01","VEREDA_V1":"TRAS DEL ALTO","VEREDA_V2":"TRAS DEL ALTO","Criterio_u":null},"geometry":{"type":"Point","coordinates":[-73.409811,5.558301]}},{"type":"Feature","properties":{"OBJECTID":3506,"COD_MPIO":"15001","X_LONG":-73.4142178803,"Y_LAT":5.55622725009,"direccion_":"SANTA MARTA","DIRECC_NOR":null,"Fecha_actu":"2022-12-01","VEREDA_V1":"TRAS DEL ALTO","VEREDA_V2":"TRAS DEL ALTO","Criterio_u":null},"geometry":{"type":"Point","coordinates":[-73.414218,5.556227]}},{"type":"Feature","properties":{"OBJECTID":3508,"COD_MPIO":"15001","X_LONG":-73.4222340709,"Y_LAT":5.54872789977,"direccion_":"LC 3","DIRECC_NOR":null,"Fecha_actu":"2022-12-01","VEREDA_V1":"TRAS DEL ALTO","VEREDA_V2":"TRAS DEL ALTO","Criterio_u":null},"geometry":{"type":"Point","coordinates":[-73.422234,5.548728]}},{"type":"Feature","properties":{"OBJECTID":3509,"COD_MPIO":"15001","X_LONG":-73.4211051691,"Y_LAT":5.54766914052,"direccion_":"LC 5","DIRECC_NOR":null,"Fecha_actu":"2022-12-01","VEREDA_V1":"TRAS DEL ALTO","VEREDA_V2":"TRAS DEL ALTO","Criterio_u":null},"geometry":{"type":"Point","coordinates":[-73.421105,5.547669]}},{"type":"Feature","properties":{"OBJECTID":3510,"COD_MPIO":"15001","X_LONG":-73.3925242396,"Y_LAT":5.55022115029,"direccion_":"VILLA MARIA","DIRECC_NOR":null,"Fecha_actu":"2022-12-01","VEREDA_V1":"TRAS DEL ALTO","VEREDA_V2":"TRAS DEL ALTO","Criterio_u":null},"geometry":{"type":"Point","coordinates":[-73.392524,5.550221]}},{"type":"Feature","properties":{"OBJECTID":3511,"COD_MPIO":"15001","X_LONG":-73.3934027999,"Y_LAT":5.55037341,"direccion_":"D","DIRECC_NOR":null,"Fecha_actu":"2022-12-01","VEREDA_V1":"TRAS DEL ALTO","VEREDA_V2":"TRAS DEL ALTO","Criterio_u":null},"geometry":{"type":"Point","coordinates":[-73.393403,5.550373]}},{"type":"Feature","properties":{"OBJECTID":3512,"COD_MPIO":"15001","X_LONG":-73.4194840098,"Y_LAT":5.55592138976,"direccion_":"SAN ISIDRO","DIRECC_NOR":null,"Fecha_actu":"2022-12-01","VEREDA_V1":"TRAS DEL ALTO","VEREDA_V2":"TRAS DEL ALTO","Criterio_u":null},"geometry":{"type":"Point","coordinates":[-73.419484,5.555921]}},{"type":"Feature","properties":{"OBJECTID":3513,"COD_MPIO":"15001","X_LONG":-73.4252194703,"Y_LAT":5.55680020996,"direccion_":"EL RECUERDO","DIRECC_NOR":null,"Fecha_actu":"2022-12-01","VEREDA_V1":"TRAS DEL ALTO","VEREDA_V2":"TRAS DEL ALTO","Criterio_u":null},"geometry":{"type":"Point","coordinates":[-73.425219,5.5568]}},{"type":"Feature","properties":{"OBJECTID":3514,"COD_MPIO":"15001","X_LONG":-73.3733577101,"Y_LAT":5.55109491989,"direccion_":"LA ESPERANZA","DIRECC_NOR":null,"Fecha_actu":"2022-12-01","VEREDA_V1":"TRAS DEL ALTO","VEREDA_V2":"TRAS DEL ALTO","Criterio_u":null},"geometry":{"type":"Point","coordinates":[-73.373358,5.551095]}},{"type":"Feature","properties":{"OBJECTID":3515,"COD_MPIO":"15001","X_LONG":-73.3730672902,"Y_LAT":5.55065148038,"direccion_":"LA PROVIDENCIA","DIRECC_NOR":null,"Fecha_actu":"2022-12-01","VEREDA_V1":"TRAS DEL ALTO","VEREDA_V2":"TRAS DEL ALTO","Criterio_u":null},"geometry":{"type":"Point","coordinates":[-73.373067,5.550651]}},{"type":"Feature","properties":{"OBJECTID":3516,"COD_MPIO":"15001","X_LONG":-73.38647895,"Y_LAT":5.55364021982,"direccion_":"EL TABLON","DIRECC_NOR":null,"Fecha_actu":"2022-12-01","VEREDA_V1":"TRAS DEL ALTO","VEREDA_V2":"TRAS DEL ALTO","Criterio_u":null},"geometry":{"type":"Point","coordinates":[-73.386479,5.55364]}},{"type":"Feature","properties":{"OBJECTID":3517,"COD_MPIO":"15001","X_LONG":-73.423504688,"Y_LAT":5.54651864682,"direccion_":"LA UNION","DIRECC_NOR":null,"Fecha_actu":"2022-12-01","VEREDA_V1":"TRAS DEL ALTO","VEREDA_V2":"TRAS DEL ALTO","Criterio_u":null},"geometry":{"type":"Point","coordinates":[-73.423505,5.546519]}},{"type":"Feature","properties":{"OBJECTID":3519,"COD_MPIO":"15001","X_LONG":-73.4240744202,"Y_LAT":5.55737304033,"direccion_":"EL ANGELITO","DIRECC_NOR":null,"Fecha_actu":"2022-12-01","VEREDA_V1":"TRAS DEL ALTO","VEREDA_V2":"TRAS DEL ALTO","Criterio_u":null},"geometry":{"type":"Point","coordinates":[-73.424074,5.557373]}},{"type":"Feature","properties":{"OBJECTID":3520,"COD_MPIO":"15001","X_LONG":-73.4237155799,"Y_LAT":5.55772205013,"direccion_":"LA CASCADA","DIRECC_NOR":null,"Fecha_actu":"2022-12-01","VEREDA_V1":"TRAS DEL ALTO","VEREDA_V2":"TRAS DEL ALTO","Criterio_u":null},"geometry":{"type":"Point","coordinates":[-73.423716,5.557722]}},{"type":"Feature","properties":{"OBJECTID":3521,"COD_MPIO":"15001","X_LONG":-73.3919058802,"Y_LAT":5.55285449024,"direccion_":"LC 1 LA PLANADA","DIRECC_NOR":null,"Fecha_actu":"2022-12-01","VEREDA_V1":"TRAS DEL ALTO","VEREDA_V2":"TRAS DEL ALTO","Criterio_u":null},"geometry":{"type":"Point","coordinates":[-73.391906,5.552854]}},{"type":"Feature","properties":{"OBJECTID":3524,"COD_MPIO":"15001","X_LONG":-73.4026609301,"Y_LAT":5.54698804976,"direccion_":"BELLAVISTA","DIRECC_NOR":null,"Fecha_actu":"2022-12-01","VEREDA_V1":"TRAS DEL ALTO","VEREDA_V2":"TRAS DEL ALTO","Criterio_u":null},"geometry":{"type":"Point","coordinates":[-73.402661,5.546988]}},{"type":"Feature","properties":{"OBJECTID":3525,"COD_MPIO":"15001","X_LONG":-73.4036767602,"Y_LAT":5.54682852981,"direccion_":"LA MANGUITA","DIRECC_NOR":null,"Fecha_actu":"2022-12-01","VEREDA_V1":"TRAS DEL ALTO","VEREDA_V2":"TRAS DEL ALTO","Criterio_u":null},"geometry":{"type":"Point","coordinates":[-73.403677,5.546829]}},{"type":"Feature","properties":{"OBJECTID":3528,"COD_MPIO":"15001","X_LONG":-73.4213262197,"Y_LAT":5.56046012963,"direccion_":"SAN MIGUEL","DIRECC_NOR":null,"Fecha_actu":"2022-12-01","VEREDA_V1":"TRAS DEL ALTO","VEREDA_V2":"TRAS DEL ALTO","Criterio_u":null},"geometry":{"type":"Point","coordinates":[-73.421326,5.56046]}},{"type":"Feature","properties":{"OBJECTID":3530,"COD_MPIO":"15001","X_LONG":-73.3764515497,"Y_LAT":5.5472648404,"direccion_":"MJ","DIRECC_NOR":null,"Fecha_actu":"2022-12-01","VEREDA_V1":"TRAS DEL ALTO","VEREDA_V2":"TRAS DEL ALTO","Criterio_u":null},"geometry":{"type":"Point","coordinates":[-73.376452,5.547265]}},{"type":"Feature","properties":{"OBJECTID":3531,"COD_MPIO":"15001","X_LONG":-73.4022482797,"Y_LAT":5.55969996958,"direccion_":"LA REGADERA","DIRECC_NOR":null,"Fecha_actu":"2022-12-01","VEREDA_V1":"TRAS DEL ALTO","VEREDA_V2":"TRAS DEL ALTO","Criterio_u":null},"geometry":{"type":"Point","coordinates":[-73.402248,5.5597]}},{"type":"Feature","properties":{"OBJECTID":3532,"COD_MPIO":"15001","X_LONG":-73.4050270302,"Y_LAT":5.56041088006,"direccion_":"SAN FRANCISCO","DIRECC_NOR":null,"Fecha_actu":"2022-12-01","VEREDA_V1":"TRAS DEL ALTO","VEREDA_V2":"TRAS DEL ALTO","Criterio_u":null},"geometry":{"type":"Point","coordinates":[-73.405027,5.560411]}},{"type":"Feature","properties":{"OBJECTID":3533,"COD_MPIO":"15001","X_LONG":-73.37935878,"Y_LAT":5.55750034027,"direccion_":"LA ALAMEDA","DIRECC_NOR":null,"Fecha_actu":"2022-12-01","VEREDA_V1":"TRAS DEL ALTO","VEREDA_V2":"TRAS DEL ALTO","Criterio_u":null},"geometry":{"type":"Point","coordinates":[-73.379359,5.5575]}},{"type":"Feature","properties":{"OBJECTID":3542,"COD_MPIO":"15001","X_LONG":-73.4063639803,"Y_LAT":5.54927281968,"direccion_":"EL COLUMPIO","DIRECC_NOR":null,"Fecha_actu":"2022-12-01","VEREDA_V1":"TRAS DEL ALTO","VEREDA_V2":"TRAS DEL ALTO","Criterio_u":null},"geometry":{"type":"Point","coordinates":[-73.406364,5.549273]}},{"type":"Feature","properties":{"OBJECTID":3545,"COD_MPIO":"15001","X_LONG":-73.4018415496,"Y_LAT":5.54652050032,"direccion_":"EL CEREZO","DIRECC_NOR":null,"Fecha_actu":"2022-12-01","VEREDA_V1":"TRAS DEL ALTO","VEREDA_V2":"TRAS DEL ALTO","Criterio_u":null},"geometry":{"type":"Point","coordinates":[-73.401842,5.546521]}},{"type":"Feature","properties":{"OBJECTID":3546,"COD_MPIO":"15001","X_LONG":-73.4008844704,"Y_LAT":5.54609438984,"direccion_":"EL MZO","DIRECC_NOR":null,"Fecha_actu":"2022-12-01","VEREDA_V1":"TRAS DEL ALTO","VEREDA_V2":"TRAS DEL ALTO","Criterio_u":null},"geometry":{"type":"Point","coordinates":[-73.400884,5.546094]}},{"type":"Feature","properties":{"OBJECTID":3553,"COD_MPIO":"15001","X_LONG":-73.4108920048,"Y_LAT":5.56076309504,"direccion_":"SANTA ELENA","DIRECC_NOR":null,"Fecha_actu":"2022-12-01","VEREDA_V1":"TRAS DEL ALTO","VEREDA_V2":"TRAS DEL ALTO","Criterio_u":null},"geometry":{"type":"Point","coordinates":[-73.410892,5.560763]}},{"type":"Feature","properties":{"OBJECTID":3554,"COD_MPIO":"15001","X_LONG":-73.4205184568,"Y_LAT":5.55932211313,"direccion_":"EL MZITO","DIRECC_NOR":null,"Fecha_actu":"2022-12-01","VEREDA_V1":"TRAS DEL ALTO","VEREDA_V2":"TRAS DEL ALTO","Criterio_u":null},"geometry":{"type":"Point","coordinates":[-73.420518,5.559322]}},{"type":"Feature","properties":{"OBJECTID":3555,"COD_MPIO":"15001","X_LONG":-73.4162544103,"Y_LAT":5.56040731964,"direccion_":"VALPARAISO","DIRECC_NOR":null,"Fecha_actu":"2022-12-01","VEREDA_V1":"TRAS DEL ALTO","VEREDA_V2":"TRAS DEL ALTO","Criterio_u":null},"geometry":{"type":"Point","coordinates":[-73.416254,5.560407]}},{"type":"Feature","properties":{"OBJECTID":3556,"COD_MPIO":"15001","X_LONG":-73.4130068001,"Y_LAT":5.56144106965,"direccion_":"LAS VIGAS","DIRECC_NOR":null,"Fecha_actu":"2022-12-01","VEREDA_V1":"TRAS DEL ALTO","VEREDA_V2":"TRAS DEL ALTO","Criterio_u":null},"geometry":{"type":"Point","coordinates":[-73.413007,5.561441]}},{"type":"Feature","properties":{"OBJECTID":3559,"COD_MPIO":"15001","X_LONG":-73.41678094,"Y_LAT":5.55494414955,"direccion_":"SANTA ANA","DIRECC_NOR":null,"Fecha_actu":"2022-12-01","VEREDA_V1":"TRAS DEL ALTO","VEREDA_V2":"TRAS DEL ALTO","Criterio_u":null},"geometry":{"type":"Point","coordinates":[-73.416781,5.554944]}},{"type":"Feature","properties":{"OBJECTID":3560,"COD_MPIO":"15001","X_LONG":-73.4161986703,"Y_LAT":5.55523209988,"direccion_":"LA VILLA","DIRECC_NOR":null,"Fecha_actu":"2022-12-01","VEREDA_V1":"TRAS DEL ALTO","VEREDA_V2":"TRAS DEL ALTO","Criterio_u":null},"geometry":{"type":"Point","coordinates":[-73.416199,5.555232]}},{"type":"Feature","properties":{"OBJECTID":3562,"COD_MPIO":"15001","X_LONG":-73.3762199797,"Y_LAT":5.55137503983,"direccion_":"LAS TERRAZAS","DIRECC_NOR":null,"Fecha_actu":"2022-12-01","VEREDA_V1":"TRAS DEL ALTO","VEREDA_V2":"TRAS DEL ALTO","Criterio_u":null},"geometry":{"type":"Point","coordinates":[-73.37622,5.551375]}},{"type":"Feature","properties":{"OBJECTID":3563,"COD_MPIO":"15001","X_LONG":-73.3881425501,"Y_LAT":5.54462653978,"direccion_":"DE TERRENO","DIRECC_NOR":null,"Fecha_actu":"2022-12-01","VEREDA_V1":"TRAS DEL ALTO","VEREDA_V2":"TRAS DEL ALTO","Criterio_u":null},"geometry":{"type":"Point","coordinates":[-73.388143,5.544627]}},{"type":"Feature","properties":{"OBJECTID":3564,"COD_MPIO":"15001","X_LONG":-73.4019282902,"Y_LAT":5.55811107976,"direccion_":"AGUA REGADA","DIRECC_NOR":null,"Fecha_actu":"2022-12-01","VEREDA_V1":"TRAS DEL ALTO","VEREDA_V2":"TRAS DEL ALTO","Criterio_u":null},"geometry":{"type":"Point","coordinates":[-73.401928,5.558111]}},{"type":"Feature","properties":{"OBJECTID":3568,"COD_MPIO":"15001","X_LONG":-73.3823298855,"Y_LAT":5.54129112878,"direccion_":"LA CABANA","DIRECC_NOR":null,"Fecha_actu":"2022-12-01","VEREDA_V1":"TRAS DEL ALTO","VEREDA_V2":"TRAS DEL ALTO","Criterio_u":null},"geometry":{"type":"Point","coordinates":[-73.38233,5.541291]}},{"type":"Feature","properties":{"OBJECTID":3569,"COD_MPIO":"15001","X_LONG":-73.3776642603,"Y_LAT":5.54383380988,"direccion_":"LOS APOSENTOS","DIRECC_NOR":null,"Fecha_actu":"2022-12-01","VEREDA_V1":"TRAS DEL ALTO","VEREDA_V2":"TRAS DEL ALTO","Criterio_u":null},"geometry":{"type":"Point","coordinates":[-73.377664,5.543834]}},{"type":"Feature","properties":{"OBJECTID":3570,"COD_MPIO":"15001","X_LONG":-73.37445332,"Y_LAT":5.54861154009,"direccion_":"VILLA LILA","DIRECC_NOR":null,"Fecha_actu":"2022-12-01","VEREDA_V1":"TRAS DEL ALTO","VEREDA_V2":"TRAS DEL ALTO","Criterio_u":null},"geometry":{"type":"Point","coordinates":[-73.374453,5.548612]}},{"type":"Feature","properties":{"OBJECTID":3574,"COD_MPIO":"15001","X_LONG":-73.4082359704,"Y_LAT":5.55522547008,"direccion_":"SAN FERNANDO DEL A LT 2","DIRECC_NOR":null,"Fecha_actu":"2022-12-01","VEREDA_V1":"TRAS DEL ALTO","VEREDA_V2":"TRAS DEL ALTO","Criterio_u":null},"geometry":{"type":"Point","coordinates":[-73.408236,5.555225]}},{"type":"Feature","properties":{"OBJECTID":3575,"COD_MPIO":"15001","X_LONG":-73.4083148796,"Y_LAT":5.55489199967,"direccion_":"MARIA JOSE LC 3","DIRECC_NOR":null,"Fecha_actu":"2022-12-01","VEREDA_V1":"TRAS DEL ALTO","VEREDA_V2":"TRAS DEL ALTO","Criterio_u":null},"geometry":{"type":"Point","coordinates":[-73.408315,5.554892]}},{"type":"Feature","properties":{"OBJECTID":3576,"COD_MPIO":"15001","X_LONG":-73.4085701999,"Y_LAT":5.55407452042,"direccion_":"VILLA LUISA LC 7","DIRECC_NOR":null,"Fecha_actu":"2022-12-01","VEREDA_V1":"TRAS DEL ALTO","VEREDA_V2":"TRAS DEL ALTO","Criterio_u":null},"geometry":{"type":"Point","coordinates":[-73.40857,5.554075]}},{"type":"Feature","properties":{"OBJECTID":3577,"COD_MPIO":"15001","X_LONG":-73.4082436704,"Y_LAT":5.5556007203,"direccion_":"POZO Y BOSQUE DEL AL","DIRECC_NOR":null,"Fecha_actu":"2022-12-01","VEREDA_V1":"TRAS DEL ALTO","VEREDA_V2":"TRAS DEL ALTO","Criterio_u":null},"geometry":{"type":"Point","coordinates":[-73.408244,5.555601]}},{"type":"Feature","properties":{"OBJECTID":3578,"COD_MPIO":"15001","X_LONG":-73.3749178899,"Y_LAT":5.5527030597,"direccion_":"LT DE TERRENOL D LT 1","DIRECC_NOR":null,"Fecha_actu":"2022-12-01","VEREDA_V1":"TRAS DEL ALTO","VEREDA_V2":"TRAS DEL ALTO","Criterio_u":null},"geometry":{"type":"Point","coordinates":[-73.374918,5.552703]}},{"type":"Feature","properties":{"OBJECTID":3579,"COD_MPIO":"15001","X_LONG":-73.4046830296,"Y_LAT":5.55328175005,"direccion_":"LA VEGA","DIRECC_NOR":null,"Fecha_actu":"2022-12-01","VEREDA_V1":"TRAS DEL ALTO","VEREDA_V2":"TRAS DEL ALTO","Criterio_u":null},"geometry":{"type":"Point","coordinates":[-73.404683,5.553282]}},{"type":"Feature","properties":{"OBJECTID":3580,"COD_MPIO":"15001","X_LONG":-73.3955156896,"Y_LAT":5.5595698098,"direccion_":"DE GASTOS 1","DIRECC_NOR":null,"Fecha_actu":"2022-12-01","VEREDA_V1":"TRAS DEL ALTO","VEREDA_V2":"TRAS DEL ALTO","Criterio_u":null},"geometry":{"type":"Point","coordinates":[-73.395516,5.55957]}},{"type":"Feature","properties":{"OBJECTID":3581,"COD_MPIO":"15001","X_LONG":-73.3751301704,"Y_LAT":5.54790952031,"direccion_":"EL TESORO","DIRECC_NOR":null,"Fecha_actu":"2022-12-01","VEREDA_V1":"TRAS DEL ALTO","VEREDA_V2":"TRAS DEL ALTO","Criterio_u":null},"geometry":{"type":"Point","coordinates":[-73.37513,5.54791]}},{"type":"Feature","properties":{"OBJECTID":3582,"COD_MPIO":"15001","X_LONG":-73.4014406103,"Y_LAT":5.54757018002,"direccion_":"LC","DIRECC_NOR":null,"Fecha_actu":"2022-12-01","VEREDA_V1":"TRAS DEL ALTO","VEREDA_V2":"TRAS DEL ALTO","Criterio_u":null},"geometry":{"type":"Point","coordinates":[-73.401441,5.54757]}},{"type":"Feature","properties":{"OBJECTID":3583,"COD_MPIO":"15001","X_LONG":-73.39069915,"Y_LAT":5.55687827022,"direccion_":"LT 3B","DIRECC_NOR":null,"Fecha_actu":"2022-12-01","VEREDA_V1":"TRAS DEL ALTO","VEREDA_V2":"TRAS DEL ALTO","Criterio_u":null},"geometry":{"type":"Point","coordinates":[-73.390699,5.556878]}},{"type":"Feature","properties":{"OBJECTID":3584,"COD_MPIO":"15001","X_LONG":-73.3890415304,"Y_LAT":5.55805747028,"direccion_":"LT 4A","DIRECC_NOR":null,"Fecha_actu":"2022-12-01","VEREDA_V1":"TRAS DEL ALTO","VEREDA_V2":"TRAS DEL ALTO","Criterio_u":null},"geometry":{"type":"Point","coordinates":[-73.389042,5.558057]}},{"type":"Feature","properties":{"OBJECTID":3592,"COD_MPIO":"15001","X_LONG":-73.38280877,"Y_LAT":5.55788393979,"direccion_":"EL OLIVO","DIRECC_NOR":null,"Fecha_actu":"2022-12-01","VEREDA_V1":"TRAS DEL ALTO","VEREDA_V2":"TRAS DEL ALTO","Criterio_u":null},"geometry":{"type":"Point","coordinates":[-73.382809,5.557884]}},{"type":"Feature","properties":{"OBJECTID":3599,"COD_MPIO":"15001","X_LONG":-73.3934799303,"Y_LAT":5.54617407967,"direccion_":"LA CANDELARIA","DIRECC_NOR":null,"Fecha_actu":"2022-12-01","VEREDA_V1":"TRAS DEL ALTO","VEREDA_V2":"TRAS DEL ALTO","Criterio_u":null},"geometry":{"type":"Point","coordinates":[-73.39348,5.546174]}},{"type":"Feature","properties":{"OBJECTID":3600,"COD_MPIO":"15001","X_LONG":-73.3855878298,"Y_LAT":5.54430229012,"direccion_":"EL CARMEN","DIRECC_NOR":null,"Fecha_actu":"2022-12-01","VEREDA_V1":"TRAS DEL ALTO","VEREDA_V2":"TRAS DEL ALTO","Criterio_u":null},"geometry":{"type":"Point","coordinates":[-73.385588,5.544302]}},{"type":"Feature","properties":{"OBJECTID":3601,"COD_MPIO":"15001","X_LONG":-73.3839609203,"Y_LAT":5.54720994039,"direccion_":"EL TEJAR","DIRECC_NOR":null,"Fecha_actu":"2022-12-01","VEREDA_V1":"TRAS DEL ALTO","VEREDA_V2":"TRAS DEL ALTO","Criterio_u":null},"geometry":{"type":"Point","coordinates":[-73.383961,5.54721]}},{"type":"Feature","properties":{"OBJECTID":3602,"COD_MPIO":"15001","X_LONG":-73.4218385104,"Y_LAT":5.55310563042,"direccion_":"SAN ANTONIO","DIRECC_NOR":null,"Fecha_actu":"2022-12-01","VEREDA_V1":"TRAS DEL ALTO","VEREDA_V2":"TRAS DEL ALTO","Criterio_u":null},"geometry":{"type":"Point","coordinates":[-73.421839,5.553106]}},{"type":"Feature","properties":{"OBJECTID":3603,"COD_MPIO":"15001","X_LONG":-73.4254485501,"Y_LAT":5.55245689007,"direccion_":"SAN FERNANDO","DIRECC_NOR":null,"Fecha_actu":"2022-12-01","VEREDA_V1":"TRAS DEL ALTO","VEREDA_V2":"TRAS DEL ALTO","Criterio_u":null},"geometry":{"type":"Point","coordinates":[-73.425449,5.552457]}},{"type":"Feature","properties":{"OBJECTID":3604,"COD_MPIO":"15001","X_LONG":-73.4218865504,"Y_LAT":5.55506713004,"direccion_":"EL LLANO","DIRECC_NOR":null,"Fecha_actu":"2022-12-01","VEREDA_V1":"TRAS DEL ALTO","VEREDA_V2":"TRAS DEL ALTO","Criterio_u":null},"geometry":{"type":"Point","coordinates":[-73.421887,5.555067]}},{"type":"Feature","properties":{"OBJECTID":3605,"COD_MPIO":"15001","X_LONG":-73.3770078604,"Y_LAT":5.54966819043,"direccion_":"MJ","DIRECC_NOR":null,"Fecha_actu":"2022-12-01","VEREDA_V1":"TRAS DEL ALTO","VEREDA_V2":"TRAS DEL ALTO","Criterio_u":null},"geometry":{"type":"Point","coordinates":[-73.377008,5.549668]}},{"type":"Feature","properties":{"OBJECTID":3606,"COD_MPIO":"15001","X_LONG":-73.4032052303,"Y_LAT":5.5615309398,"direccion_":"SAN FELIPE","DIRECC_NOR":null,"Fecha_actu":"2022-12-01","VEREDA_V1":"TRAS DEL ALTO","VEREDA_V2":"TRAS DEL ALTO","Criterio_u":null},"geometry":{"type":"Point","coordinates":[-73.403205,5.561531]}},{"type":"Feature","properties":{"OBJECTID":3608,"COD_MPIO":"15001","X_LONG":-73.4061385598,"Y_LAT":5.54853207959,"direccion_":"LC 2","DIRECC_NOR":null,"Fecha_actu":"2022-12-01","VEREDA_V1":"TRAS DEL ALTO","VEREDA_V2":"TRAS DEL ALTO","Criterio_u":null},"geometry":{"type":"Point","coordinates":[-73.406139,5.548532]}},{"type":"Feature","properties":{"OBJECTID":3610,"COD_MPIO":"15001","X_LONG":-73.4242860397,"Y_LAT":5.5503084196,"direccion_":"SAN RAFAEL","DIRECC_NOR":null,"Fecha_actu":"2022-12-01","VEREDA_V1":"TRAS DEL ALTO","VEREDA_V2":"TRAS DEL ALTO","Criterio_u":null},"geometry":{"type":"Point","coordinates":[-73.424286,5.550308]}},{"type":"Feature","properties":{"OBJECTID":3611,"COD_MPIO":"15001","X_LONG":-73.4187383297,"Y_LAT":5.55250635998,"direccion_":"SAN PEDRO","DIRECC_NOR":null,"Fecha_actu":"2022-12-01","VEREDA_V1":"TRAS DEL ALTO","VEREDA_V2":"TRAS DEL ALTO","Criterio_u":null},"geometry":{"type":"Point","coordinates":[-73.418738,5.552506]}},{"type":"Feature","properties":{"OBJECTID":3612,"COD_MPIO":"15001","X_LONG":-73.4144452999,"Y_LAT":5.55224096015,"direccion_":"LAS COLONIAS","DIRECC_NOR":null,"Fecha_actu":"2022-12-01","VEREDA_V1":"TRAS DEL ALTO","VEREDA_V2":"TRAS DEL ALTO","Criterio_u":null},"geometry":{"type":"Point","coordinates":[-73.414445,5.552241]}},{"type":"Feature","properties":{"OBJECTID":3613,"COD_MPIO":"15001","X_LONG":-73.3881611463,"Y_LAT":5.55682525968,"direccion_":"MATA DE ROSA","DIRECC_NOR":null,"Fecha_actu":"2022-12-01","VEREDA_V1":"TRAS DEL ALTO","VEREDA_V2":"TRAS DEL ALTO","Criterio_u":null},"geometry":{"type":"Point","coordinates":[-73.388161,5.556825]}},{"type":"Feature","properties":{"OBJECTID":3624,"COD_MPIO":"15001","X_LONG":-73.3905054397,"Y_LAT":5.54872481959,"direccion_":"LC 4","DIRECC_NOR":null,"Fecha_actu":"2022-12-01","VEREDA_V1":"TRAS DEL ALTO","VEREDA_V2":"TRAS DEL ALTO","Criterio_u":null},"geometry":{"type":"Point","coordinates":[-73.390505,5.548725]}},{"type":"Feature","properties":{"OBJECTID":3625,"COD_MPIO":"15001","X_LONG":-73.3922602004,"Y_LAT":5.54951256995,"direccion_":"VIA DE ACCESO","DIRECC_NOR":null,"Fecha_actu":"2022-12-01","VEREDA_V1":"TRAS DEL ALTO","VEREDA_V2":"TRAS DEL ALTO","Criterio_u":null},"geometry":{"type":"Point","coordinates":[-73.39226,5.549513]}},{"type":"Feature","properties":{"OBJECTID":3630,"COD_MPIO":"15001","X_LONG":-73.4057989399,"Y_LAT":5.5522691503,"direccion_":"CA BLANCA","DIRECC_NOR":null,"Fecha_actu":"2022-12-01","VEREDA_V1":"TRAS DEL ALTO","VEREDA_V2":"TRAS DEL ALTO","Criterio_u":null},"geometry":{"type":"Point","coordinates":[-73.405799,5.552269]}},{"type":"Feature","properties":{"OBJECTID":3634,"COD_MPIO":"15001","X_LONG":-73.40588069,"Y_LAT":5.55315633959,"direccion_":"LC C","DIRECC_NOR":null,"Fecha_actu":"2022-12-01","VEREDA_V1":"TRAS DEL ALTO","VEREDA_V2":"TRAS DEL ALTO","Criterio_u":null},"geometry":{"type":"Point","coordinates":[-73.405881,5.553156]}},{"type":"Feature","properties":{"OBJECTID":3635,"COD_MPIO":"15001","X_LONG":-73.4083893498,"Y_LAT":5.56460866985,"direccion_":"VILLA ROSITA","DIRECC_NOR":null,"Fecha_actu":"2022-12-01","VEREDA_V1":"TRAS DEL ALTO","VEREDA_V2":"TRAS DEL ALTO","Criterio_u":null},"geometry":{"type":"Point","coordinates":[-73.408389,5.564609]}},{"type":"Feature","properties":{"OBJECTID":3636,"COD_MPIO":"15001","X_LONG":-73.3929692304,"Y_LAT":5.55391302017,"direccion_":"LOS BARRANCOS","DIRECC_NOR":null,"Fecha_actu":"2022-12-01","VEREDA_V1":"TRAS DEL ALTO","VEREDA_V2":"TRAS DEL ALTO","Criterio_u":null},"geometry":{"type":"Point","coordinates":[-73.392969,5.553913]}},{"type":"Feature","properties":{"OBJECTID":3637,"COD_MPIO":"15001","X_LONG":-73.38488037,"Y_LAT":5.55743693986,"direccion_":"EL PORVENIR","DIRECC_NOR":null,"Fecha_actu":"2022-12-01","VEREDA_V1":"TRAS DEL ALTO","VEREDA_V2":"TRAS DEL ALTO","Criterio_u":null},"geometry":{"type":"Point","coordinates":[-73.38488,5.557437]}},{"type":"Feature","properties":{"OBJECTID":3638,"COD_MPIO":"15001","X_LONG":-73.393813371,"Y_LAT":5.5543901321,"direccion_":"LOS LAMBEDEROS","DIRECC_NOR":null,"Fecha_actu":"2022-12-01","VEREDA_V1":"TRAS DEL ALTO","VEREDA_V2":"TRAS DEL ALTO","Criterio_u":null},"geometry":{"type":"Point","coordinates":[-73.393813,5.55439]}},{"type":"Feature","properties":{"OBJECTID":3639,"COD_MPIO":"15001","X_LONG":-73.4205793301,"Y_LAT":5.55742998001,"direccion_":"EL PORTUGAL","DIRECC_NOR":null,"Fecha_actu":"2022-12-01","VEREDA_V1":"TRAS DEL ALTO","VEREDA_V2":"TRAS DEL ALTO","Criterio_u":null},"geometry":{"type":"Point","coordinates":[-73.420579,5.55743]}},{"type":"Feature","properties":{"OBJECTID":3646,"COD_MPIO":"15001","X_LONG":-73.4014233802,"Y_LAT":5.54631217956,"direccion_":"EL SALVIAL","DIRECC_NOR":null,"Fecha_actu":"2022-12-01","VEREDA_V1":"TRAS DEL ALTO","VEREDA_V2":"TRAS DEL ALTO","Criterio_u":null},"geometry":{"type":"Point","coordinates":[-73.401423,5.546312]}},{"type":"Feature","properties":{"OBJECTID":3647,"COD_MPIO":"15001","X_LONG":-73.4142808301,"Y_LAT":5.56306218038,"direccion_":"LAS LOMITAS","DIRECC_NOR":null,"Fecha_actu":"2022-12-01","VEREDA_V1":"TRAS DEL ALTO","VEREDA_V2":"TRAS DEL ALTO","Criterio_u":null},"geometry":{"type":"Point","coordinates":[-73.414281,5.563062]}},{"type":"Feature","properties":{"OBJECTID":3649,"COD_MPIO":"15001","X_LONG":-73.4134900796,"Y_LAT":5.55536245032,"direccion_":"SAN CAYETANO","DIRECC_NOR":null,"Fecha_actu":"2022-12-01","VEREDA_V1":"TRAS DEL ALTO","VEREDA_V2":"TRAS DEL ALTO","Criterio_u":null},"geometry":{"type":"Point","coordinates":[-73.41349,5.555362]}},{"type":"Feature","properties":{"OBJECTID":3651,"COD_MPIO":"15001","X_LONG":-73.4136326698,"Y_LAT":5.56070084037,"direccion_":"AIRE DEL ESPINO","DIRECC_NOR":null,"Fecha_actu":"2022-12-01","VEREDA_V1":"TRAS DEL ALTO","VEREDA_V2":"TRAS DEL ALTO","Criterio_u":null},"geometry":{"type":"Point","coordinates":[-73.413633,5.560701]}},{"type":"Feature","properties":{"OBJECTID":3654,"COD_MPIO":"15001","X_LONG":-73.4025053599,"Y_LAT":5.54840179031,"direccion_":"SINDIRE","DIRECC_NOR":null,"Fecha_actu":"2022-12-01","VEREDA_V1":"TRAS DEL ALTO","VEREDA_V2":"TRAS DEL ALTO","Criterio_u":null},"geometry":{"type":"Point","coordinates":[-73.402505,5.548402]}},{"type":"Feature","properties":{"OBJECTID":3657,"COD_MPIO":"15001","X_LONG":-73.3770126601,"Y_LAT":5.54777946035,"direccion_":"SANTA BARBARA","DIRECC_NOR":null,"Fecha_actu":"2022-12-01","VEREDA_V1":"TRAS DEL ALTO","VEREDA_V2":"TRAS DEL ALTO","Criterio_u":null},"geometry":{"type":"Point","coordinates":[-73.377013,5.547779]}},{"type":"Feature","properties":{"OBJECTID":3658,"COD_MPIO":"15001","X_LONG":-73.4042005901,"Y_LAT":5.55185221021,"direccion_":"DE TERRENO","DIRECC_NOR":null,"Fecha_actu":"2022-12-01","VEREDA_V1":"TRAS DEL ALTO","VEREDA_V2":"TRAS DEL ALTO","Criterio_u":null},"geometry":{"type":"Point","coordinates":[-73.404201,5.551852]}},{"type":"Feature","properties":{"OBJECTID":3661,"COD_MPIO":"15001","X_LONG":-73.3918532302,"Y_LAT":5.55699836029,"direccion_":"LT 3A","DIRECC_NOR":null,"Fecha_actu":"2022-12-01","VEREDA_V1":"TRAS DEL ALTO","VEREDA_V2":"TRAS DEL ALTO","Criterio_u":null},"geometry":{"type":"Point","coordinates":[-73.391853,5.556998]}},{"type":"Feature","properties":{"OBJECTID":3663,"COD_MPIO":"15001","X_LONG":-73.4095254103,"Y_LAT":5.56179947017,"direccion_":"L 1","DIRECC_NOR":null,"Fecha_actu":"2022-12-01","VEREDA_V1":"TRAS DEL ALTO","VEREDA_V2":"TRAS DEL ALTO","Criterio_u":null},"geometry":{"type":"Point","coordinates":[-73.409525,5.561799]}},{"type":"Feature","properties":{"OBJECTID":3664,"COD_MPIO":"15001","X_LONG":-73.3757947901,"Y_LAT":5.54958328004,"direccion_":"SIDET","DIRECC_NOR":null,"Fecha_actu":"2022-12-01","VEREDA_V1":"TRAS DEL ALTO","VEREDA_V2":"TRAS DEL ALTO","Criterio_u":null},"geometry":{"type":"Point","coordinates":[-73.375795,5.549583]}},{"type":"Feature","properties":{"OBJECTID":3665,"COD_MPIO":"15001","X_LONG":-73.3830696004,"Y_LAT":5.55607242011,"direccion_":"EL CUARSO","DIRECC_NOR":null,"Fecha_actu":"2022-12-01","VEREDA_V1":"TRAS DEL ALTO","VEREDA_V2":"TRAS DEL ALTO","Criterio_u":null},"geometry":{"type":"Point","coordinates":[-73.38307,5.556072]}},{"type":"Feature","properties":{"OBJECTID":3666,"COD_MPIO":"15001","X_LONG":-73.3769487804,"Y_LAT":5.54262940992,"direccion_":"LA CABANA","DIRECC_NOR":null,"Fecha_actu":"2022-12-01","VEREDA_V1":"TRAS DEL ALTO","VEREDA_V2":"TRAS DEL ALTO","Criterio_u":null},"geometry":{"type":"Point","coordinates":[-73.376949,5.542629]}},{"type":"Feature","properties":{"OBJECTID":3667,"COD_MPIO":"15001","X_LONG":-73.4053034179,"Y_LAT":5.56124450573,"direccion_":"LA ESTANCIA","DIRECC_NOR":null,"Fecha_actu":"2022-12-01","VEREDA_V1":"TRAS DEL ALTO","VEREDA_V2":"TRAS DEL ALTO","Criterio_u":null},"geometry":{"type":"Point","coordinates":[-73.405303,5.561245]}},{"type":"Feature","properties":{"OBJECTID":3668,"COD_MPIO":"15001","X_LONG":-73.4232330001,"Y_LAT":5.55839161968,"direccion_":"EL TRIUNFO","DIRECC_NOR":null,"Fecha_actu":"2022-12-01","VEREDA_V1":"TRAS DEL ALTO","VEREDA_V2":"TRAS DEL ALTO","Criterio_u":null},"geometry":{"type":"Point","coordinates":[-73.423233,5.558392]}},{"type":"Feature","properties":{"OBJECTID":3669,"COD_MPIO":"15001","X_LONG":-73.4187190204,"Y_LAT":5.55507167971,"direccion_":"FLORENCIA","DIRECC_NOR":null,"Fecha_actu":"2022-12-01","VEREDA_V1":"TRAS DEL ALTO","VEREDA_V2":"TRAS DEL ALTO","Criterio_u":null},"geometry":{"type":"Point","coordinates":[-73.418719,5.555072]}},{"type":"Feature","properties":{"OBJECTID":3670,"COD_MPIO":"15001","X_LONG":-73.42210301,"Y_LAT":5.55602422004,"direccion_":"SAN LUIS","DIRECC_NOR":null,"Fecha_actu":"2022-12-01","VEREDA_V1":"TRAS DEL ALTO","VEREDA_V2":"TRAS DEL ALTO","Criterio_u":null},"geometry":{"type":"Point","coordinates":[-73.422103,5.556024]}},{"type":"Feature","properties":{"OBJECTID":3671,"COD_MPIO":"15001","X_LONG":-73.4091370704,"Y_LAT":5.56025379997,"direccion_":"LA DESPENSITA","DIRECC_NOR":null,"Fecha_actu":"2022-12-01","VEREDA_V1":"TRAS DEL ALTO","VEREDA_V2":"TRAS DEL ALTO","Criterio_u":null},"geometry":{"type":"Point","coordinates":[-73.409137,5.560254]}},{"type":"Feature","properties":{"OBJECTID":3672,"COD_MPIO":"15001","X_LONG":-73.4088617996,"Y_LAT":5.5514238973,"direccion_":"FLORIAN","DIRECC_NOR":null,"Fecha_actu":"2022-12-01","VEREDA_V1":"TRAS DEL ALTO","VEREDA_V2":"TRAS DEL ALTO","Criterio_u":null},"geometry":{"type":"Point","coordinates":[-73.408862,5.551424]}},{"type":"Feature","properties":{"OBJECTID":3673,"COD_MPIO":"15001","X_LONG":-73.4042072001,"Y_LAT":5.5488054699,"direccion_":"SAN MARTIN","DIRECC_NOR":null,"Fecha_actu":"2022-12-01","VEREDA_V1":"TRAS DEL ALTO","VEREDA_V2":"TRAS DEL ALTO","Criterio_u":null},"geometry":{"type":"Point","coordinates":[-73.404207,5.548805]}},{"type":"Feature","properties":{"OBJECTID":3674,"COD_MPIO":"15001","X_LONG":-73.3976743296,"Y_LAT":5.54609404001,"direccion_":"LA CALERA","DIRECC_NOR":null,"Fecha_actu":"2022-12-01","VEREDA_V1":"TRAS DEL ALTO","VEREDA_V2":"TRAS DEL ALTO","Criterio_u":null},"geometry":{"type":"Point","coordinates":[-73.397674,5.546094]}},{"type":"Feature","properties":{"OBJECTID":3675,"COD_MPIO":"15001","X_LONG":-73.3923638401,"Y_LAT":5.54580798995,"direccion_":"PETROSELE","DIRECC_NOR":null,"Fecha_actu":"2022-12-01","VEREDA_V1":"TRAS DEL ALTO","VEREDA_V2":"TRAS DEL ALTO","Criterio_u":null},"geometry":{"type":"Point","coordinates":[-73.392364,5.545808]}},{"type":"Feature","properties":{"OBJECTID":3676,"COD_MPIO":"15001","X_LONG":-73.3913677501,"Y_LAT":5.54547297,"direccion_":"SAN JAVIER","DIRECC_NOR":null,"Fecha_actu":"2022-12-01","VEREDA_V1":"TRAS DEL ALTO","VEREDA_V2":"TRAS DEL ALTO","Criterio_u":null},"geometry":{"type":"Point","coordinates":[-73.391368,5.545473]}},{"type":"Feature","properties":{"OBJECTID":3677,"COD_MPIO":"15001","X_LONG":-73.3992967246,"Y_LAT":5.550644159,"direccion_":"LA LAGUNA","DIRECC_NOR":null,"Fecha_actu":"2022-12-01","VEREDA_V1":"TRAS DEL ALTO","VEREDA_V2":"TRAS DEL ALTO","Criterio_u":null},"geometry":{"type":"Point","coordinates":[-73.399297,5.550644]}},{"type":"Feature","properties":{"OBJECTID":3678,"COD_MPIO":"15001","X_LONG":-73.4033397797,"Y_LAT":5.54943565993,"direccion_":"ESCUELA","DIRECC_NOR":null,"Fecha_actu":"2022-12-01","VEREDA_V1":"TRAS DEL ALTO","VEREDA_V2":"TRAS DEL ALTO","Criterio_u":null},"geometry":{"type":"Point","coordinates":[-73.40334,5.549436]}},{"type":"Feature","properties":{"OBJECTID":3679,"COD_MPIO":"15001","X_LONG":-73.4068389204,"Y_LAT":5.55383221968,"direccion_":"TERRENO F","DIRECC_NOR":null,"Fecha_actu":"2022-12-01","VEREDA_V1":"TRAS DEL ALTO","VEREDA_V2":"TRAS DEL ALTO","Criterio_u":null},"geometry":{"type":"Point","coordinates":[-73.406839,5.553832]}},{"type":"Feature","properties":{"OBJECTID":3680,"COD_MPIO":"15001","X_LONG":-73.3986361797,"Y_LAT":5.55924413021,"direccion_":"LT 1B","DIRECC_NOR":null,"Fecha_actu":"2022-12-01","VEREDA_V1":"TRAS DEL ALTO","VEREDA_V2":"TRAS DEL ALTO","Criterio_u":null},"geometry":{"type":"Point","coordinates":[-73.398636,5.559244]}},{"type":"Feature","properties":{"OBJECTID":3684,"COD_MPIO":"15001","X_LONG":-73.3735580098,"Y_LAT":5.54560221967,"direccion_":"EL REFUERZO","DIRECC_NOR":null,"Fecha_actu":"2022-12-01","VEREDA_V1":"TRAS DEL ALTO","VEREDA_V2":"TRAS DEL ALTO","Criterio_u":null},"geometry":{"type":"Point","coordinates":[-73.373558,5.545602]}},{"type":"Feature","properties":{"OBJECTID":3685,"COD_MPIO":"15001","X_LONG":-73.3817345703,"Y_LAT":5.54557528767,"direccion_":"SAN JUAN","DIRECC_NOR":null,"Fecha_actu":"2022-12-01","VEREDA_V1":"TRAS DEL ALTO","VEREDA_V2":"TRAS DEL ALTO","Criterio_u":null},"geometry":{"type":"Point","coordinates":[-73.381735,5.545575]}},{"type":"Feature","properties":{"OBJECTID":3689,"COD_MPIO":"15001","X_LONG":-73.4112354298,"Y_LAT":5.55978953036,"direccion_":"ALTO DE PERRO DON CAMILO","DIRECC_NOR":null,"Fecha_actu":"2022-12-01","VEREDA_V1":"TRAS DEL ALTO","VEREDA_V2":"TRAS DEL ALTO","Criterio_u":null},"geometry":{"type":"Point","coordinates":[-73.411235,5.55979]}},{"type":"Feature","properties":{"OBJECTID":3695,"COD_MPIO":"15001","X_LONG":-73.3763624503,"Y_LAT":5.5464754299,"direccion_":"SANTA MILENA","DIRECC_NOR":null,"Fecha_actu":"2022-12-01","VEREDA_V1":"TRAS DEL ALTO","VEREDA_V2":"TRAS DEL ALTO","Criterio_u":null},"geometry":{"type":"Point","coordinates":[-73.376362,5.546475]}},{"type":"Feature","properties":{"OBJECTID":3696,"COD_MPIO":"15001","X_LONG":-73.3787023297,"Y_LAT":5.54587041009,"direccion_":"VILLA RAMIRO","DIRECC_NOR":null,"Fecha_actu":"2022-12-01","VEREDA_V1":"TRAS DEL ALTO","VEREDA_V2":"TRAS DEL ALTO","Criterio_u":null},"geometry":{"type":"Point","coordinates":[-73.378702,5.54587]}},{"type":"Feature","properties":{"OBJECTID":3705,"COD_MPIO":"15001","X_LONG":-73.4151045201,"Y_LAT":5.55037860989,"direccion_":"BUENOA AIRES","DIRECC_NOR":null,"Fecha_actu":"2022-12-01","VEREDA_V1":"TRAS DEL ALTO","VEREDA_V2":"TRAS DEL ALTO","Criterio_u":null},"geometry":{"type":"Point","coordinates":[-73.415105,5.550379]}},{"type":"Feature","properties":{"OBJECTID":3706,"COD_MPIO":"15001","X_LONG":-73.4126347542,"Y_LAT":5.55106378896,"direccion_":"LOS GURRUBOS","DIRECC_NOR":null,"Fecha_actu":"2022-12-01","VEREDA_V1":"TRAS DEL ALTO","VEREDA_V2":"TRAS DEL ALTO","Criterio_u":null},"geometry":{"type":"Point","coordinates":[-73.412635,5.551064]}},{"type":"Feature","properties":{"OBJECTID":3707,"COD_MPIO":"15001","X_LONG":-73.4112767626,"Y_LAT":5.55287913436,"direccion_":"LOS ALISOS","DIRECC_NOR":null,"Fecha_actu":"2022-12-01","VEREDA_V1":"TRAS DEL ALTO","VEREDA_V2":"TRAS DEL ALTO","Criterio_u":null},"geometry":{"type":"Point","coordinates":[-73.411277,5.552879]}},{"type":"Feature","properties":{"OBJECTID":3708,"COD_MPIO":"15001","X_LONG":-73.4208404302,"Y_LAT":5.55270244996,"direccion_":"SAN BENITO","DIRECC_NOR":null,"Fecha_actu":"2022-12-01","VEREDA_V1":"TRAS DEL ALTO","VEREDA_V2":"TRAS DEL ALTO","Criterio_u":null},"geometry":{"type":"Point","coordinates":[-73.42084,5.552702]}},{"type":"Feature","properties":{"OBJECTID":3709,"COD_MPIO":"15001","X_LONG":-73.4252525204,"Y_LAT":5.55174492019,"direccion_":"VILLA NUEVA","DIRECC_NOR":null,"Fecha_actu":"2022-12-01","VEREDA_V1":"TRAS DEL ALTO","VEREDA_V2":"TRAS DEL ALTO","Criterio_u":null},"geometry":{"type":"Point","coordinates":[-73.425253,5.551745]}},{"type":"Feature","properties":{"OBJECTID":3710,"COD_MPIO":"15001","X_LONG":-73.4158275309,"Y_LAT":5.56374620652,"direccion_":"EL CARARE","DIRECC_NOR":null,"Fecha_actu":"2022-12-01","VEREDA_V1":"TRAS DEL ALTO","VEREDA_V2":"TRAS DEL ALTO","Criterio_u":null},"geometry":{"type":"Point","coordinates":[-73.415828,5.563746]}},{"type":"Feature","properties":{"OBJECTID":3711,"COD_MPIO":"15001","X_LONG":-73.4058893397,"Y_LAT":5.55575523012,"direccion_":"LA PEDRERA","DIRECC_NOR":null,"Fecha_actu":"2022-12-01","VEREDA_V1":"TRAS DEL ALTO","VEREDA_V2":"TRAS DEL ALTO","Criterio_u":null},"geometry":{"type":"Point","coordinates":[-73.405889,5.555755]}},{"type":"Feature","properties":{"OBJECTID":3712,"COD_MPIO":"15001","X_LONG":-73.3958747241,"Y_LAT":5.54825606147,"direccion_":"SAN MARCOS","DIRECC_NOR":null,"Fecha_actu":"2022-12-01","VEREDA_V1":"TRAS DEL ALTO","VEREDA_V2":"TRAS DEL ALTO","Criterio_u":null},"geometry":{"type":"Point","coordinates":[-73.395875,5.548256]}},{"type":"Feature","properties":{"OBJECTID":3713,"COD_MPIO":"15001","X_LONG":-73.4055638004,"Y_LAT":5.55286775974,"direccion_":"TERRENO B","DIRECC_NOR":null,"Fecha_actu":"2022-12-01","VEREDA_V1":"TRAS DEL ALTO","VEREDA_V2":"TRAS DEL ALTO","Criterio_u":null},"geometry":{"type":"Point","coordinates":[-73.405564,5.552868]}},{"type":"Feature","properties":{"OBJECTID":3714,"COD_MPIO":"15001","X_LONG":-73.40358296,"Y_LAT":5.55223770011,"direccion_":"EL OJO DE AGUA","DIRECC_NOR":null,"Fecha_actu":"2022-12-01","VEREDA_V1":"TRAS DEL ALTO","VEREDA_V2":"TRAS DEL ALTO","Criterio_u":null},"geometry":{"type":"Point","coordinates":[-73.403583,5.552238]}},{"type":"Feature","properties":{"OBJECTID":3715,"COD_MPIO":"15001","X_LONG":-73.4024436799,"Y_LAT":5.55614189993,"direccion_":"TERRENO LT 6","DIRECC_NOR":null,"Fecha_actu":"2022-12-01","VEREDA_V1":"TRAS DEL ALTO","VEREDA_V2":"TRAS DEL ALTO","Criterio_u":null},"geometry":{"type":"Point","coordinates":[-73.402444,5.556142]}},{"type":"Feature","properties":{"OBJECTID":3716,"COD_MPIO":"15001","X_LONG":-73.4042227404,"Y_LAT":5.55530364005,"direccion_":"LA CASTELLANA","DIRECC_NOR":null,"Fecha_actu":"2022-12-01","VEREDA_V1":"TRAS DEL ALTO","VEREDA_V2":"TRAS DEL ALTO","Criterio_u":null},"geometry":{"type":"Point","coordinates":[-73.404223,5.555304]}},{"type":"Feature","properties":{"OBJECTID":3717,"COD_MPIO":"15001","X_LONG":-73.4048018498,"Y_LAT":5.55456208967,"direccion_":"TERRENO LT 3","DIRECC_NOR":null,"Fecha_actu":"2022-12-01","VEREDA_V1":"TRAS DEL ALTO","VEREDA_V2":"TRAS DEL ALTO","Criterio_u":null},"geometry":{"type":"Point","coordinates":[-73.404802,5.554562]}},{"type":"Feature","properties":{"OBJECTID":3718,"COD_MPIO":"15001","X_LONG":-73.4054814801,"Y_LAT":5.55421631023,"direccion_":"SAN ALFONSO","DIRECC_NOR":null,"Fecha_actu":"2022-12-01","VEREDA_V1":"TRAS DEL ALTO","VEREDA_V2":"TRAS DEL ALTO","Criterio_u":null},"geometry":{"type":"Point","coordinates":[-73.405481,5.554216]}},{"type":"Feature","properties":{"OBJECTID":3719,"COD_MPIO":"15001","X_LONG":-73.4070345301,"Y_LAT":5.56271980038,"direccion_":"LA ISLA","DIRECC_NOR":null,"Fecha_actu":"2022-12-01","VEREDA_V1":"TRAS DEL ALTO","VEREDA_V2":"TRAS DEL ALTO","Criterio_u":null},"geometry":{"type":"Point","coordinates":[-73.407035,5.56272]}},{"type":"Feature","properties":{"OBJECTID":3720,"COD_MPIO":"15001","X_LONG":-73.4116731901,"Y_LAT":5.56653311021,"direccion_":"MORTINO","DIRECC_NOR":null,"Fecha_actu":"2022-12-01","VEREDA_V1":"TRAS DEL ALTO","VEREDA_V2":"TRAS DEL ALTO","Criterio_u":null},"geometry":{"type":"Point","coordinates":[-73.411673,5.566533]}},{"type":"Feature","properties":{"OBJECTID":3721,"COD_MPIO":"15001","X_LONG":-73.4094250999,"Y_LAT":5.56509842985,"direccion_":"SANTA TERESA","DIRECC_NOR":null,"Fecha_actu":"2022-12-01","VEREDA_V1":"TRAS DEL ALTO","VEREDA_V2":"TRAS DEL ALTO","Criterio_u":null},"geometry":{"type":"Point","coordinates":[-73.409425,5.565098]}},{"type":"Feature","properties":{"OBJECTID":3722,"COD_MPIO":"15001","X_LONG":-73.3977227293,"Y_LAT":5.55412019879,"direccion_":"LA MESETA","DIRECC_NOR":null,"Fecha_actu":"2022-12-01","VEREDA_V1":"TRAS DEL ALTO","VEREDA_V2":"TRAS DEL ALTO","Criterio_u":null},"geometry":{"type":"Point","coordinates":[-73.397723,5.55412]}},{"type":"Feature","properties":{"OBJECTID":3723,"COD_MPIO":"15001","X_LONG":-73.3814268798,"Y_LAT":5.55472738956,"direccion_":"LA SIBERIA","DIRECC_NOR":null,"Fecha_actu":"2022-12-01","VEREDA_V1":"TRAS DEL ALTO","VEREDA_V2":"TRAS DEL ALTO","Criterio_u":null},"geometry":{"type":"Point","coordinates":[-73.381427,5.554727]}},{"type":"Feature","properties":{"OBJECTID":3725,"COD_MPIO":"15001","X_LONG":-73.3774797698,"Y_LAT":5.54835531964,"direccion_":"SANTA CECILIA","DIRECC_NOR":null,"Fecha_actu":"2022-12-01","VEREDA_V1":"TRAS DEL ALTO","VEREDA_V2":"TRAS DEL ALTO","Criterio_u":null},"geometry":{"type":"Point","coordinates":[-73.37748,5.548355]}},{"type":"Feature","properties":{"OBJECTID":3726,"COD_MPIO":"15001","X_LONG":-73.3959687698,"Y_LAT":5.54613453018,"direccion_":"CAMPO HERMOSO","DIRECC_NOR":null,"Fecha_actu":"2022-12-01","VEREDA_V1":"TRAS DEL ALTO","VEREDA_V2":"TRAS DEL ALTO","Criterio_u":null},"geometry":{"type":"Point","coordinates":[-73.395969,5.546135]}},{"type":"Feature","properties":{"OBJECTID":3727,"COD_MPIO":"15001","X_LONG":-73.3813807896,"Y_LAT":5.55640677995,"direccion_":"XXX VRA","DIRECC_NOR":null,"Fecha_actu":"2022-12-01","VEREDA_V1":"TRAS DEL ALTO","VEREDA_V2":"TRAS DEL ALTO","Criterio_u":null},"geometry":{"type":"Point","coordinates":[-73.381381,5.556407]}},{"type":"Feature","properties":{"OBJECTID":3728,"COD_MPIO":"15001","X_LONG":-73.4030493302,"Y_LAT":5.54921226024,"direccion_":"CENTRO DE SALUD","DIRECC_NOR":null,"Fecha_actu":"2022-12-01","VEREDA_V1":"TRAS DEL ALTO","VEREDA_V2":"TRAS DEL ALTO","Criterio_u":null},"geometry":{"type":"Point","coordinates":[-73.403049,5.549212]}},{"type":"Feature","properties":{"OBJECTID":3729,"COD_MPIO":"15001","X_LONG":-73.4050935503,"Y_LAT":5.54840807028,"direccion_":"LC 6","DIRECC_NOR":null,"Fecha_actu":"2022-12-01","VEREDA_V1":"TRAS DEL ALTO","VEREDA_V2":"TRAS DEL ALTO","Criterio_u":null},"geometry":{"type":"Point","coordinates":[-73.405094,5.548408]}},{"type":"Feature","properties":{"OBJECTID":3730,"COD_MPIO":"15001","X_LONG":-73.4048245901,"Y_LAT":5.54792312975,"direccion_":"LC 8","DIRECC_NOR":null,"Fecha_actu":"2022-12-01","VEREDA_V1":"TRAS DEL ALTO","VEREDA_V2":"TRAS DEL ALTO","Criterio_u":null},"geometry":{"type":"Point","coordinates":[-73.404825,5.547923]}},{"type":"Feature","properties":{"OBJECTID":3731,"COD_MPIO":"15001","X_LONG":-73.4083932403,"Y_LAT":5.55588613004,"direccion_":"LA ESTANCIA DEL AL LT 1","DIRECC_NOR":null,"Fecha_actu":"2022-12-01","VEREDA_V1":"TRAS DEL ALTO","VEREDA_V2":"TRAS DEL ALTO","Criterio_u":null},"geometry":{"type":"Point","coordinates":[-73.408393,5.555886]}},{"type":"Feature","properties":{"OBJECTID":3732,"COD_MPIO":"15001","X_LONG":-73.4082467902,"Y_LAT":5.55446661045,"direccion_":"SANTA INES LC 4","DIRECC_NOR":null,"Fecha_actu":"2022-12-01","VEREDA_V1":"TRAS DEL ALTO","VEREDA_V2":"TRAS DEL ALTO","Criterio_u":null},"geometry":{"type":"Point","coordinates":[-73.408247,5.554467]}},{"type":"Feature","properties":{"OBJECTID":3733,"COD_MPIO":"15001","X_LONG":-73.4087159602,"Y_LAT":5.55466667992,"direccion_":"SAN JOQUIN LC 5","DIRECC_NOR":null,"Fecha_actu":"2022-12-01","VEREDA_V1":"TRAS DEL ALTO","VEREDA_V2":"TRAS DEL ALTO","Criterio_u":null},"geometry":{"type":"Point","coordinates":[-73.408716,5.554667]}},{"type":"Feature","properties":{"OBJECTID":3734,"COD_MPIO":"15001","X_LONG":-73.40902505,"Y_LAT":5.55434773986,"direccion_":"BELLAVISTA LC 6","DIRECC_NOR":null,"Fecha_actu":"2022-12-01","VEREDA_V1":"TRAS DEL ALTO","VEREDA_V2":"TRAS DEL ALTO","Criterio_u":null},"geometry":{"type":"Point","coordinates":[-73.409025,5.554348]}},{"type":"Feature","properties":{"OBJECTID":3735,"COD_MPIO":"15001","X_LONG":-73.4081532697,"Y_LAT":5.55389462993,"direccion_":"VILLA MARIA LC 8","DIRECC_NOR":null,"Fecha_actu":"2022-12-01","VEREDA_V1":"TRAS DEL ALTO","VEREDA_V2":"TRAS DEL ALTO","Criterio_u":null},"geometry":{"type":"Point","coordinates":[-73.408153,5.553895]}},{"type":"Feature","properties":{"OBJECTID":3736,"COD_MPIO":"15001","X_LONG":-73.3981107301,"Y_LAT":5.55799068033,"direccion_":"CEBADERO","DIRECC_NOR":null,"Fecha_actu":"2022-12-01","VEREDA_V1":"TRAS DEL ALTO","VEREDA_V2":"TRAS DEL ALTO","Criterio_u":null},"geometry":{"type":"Point","coordinates":[-73.398111,5.557991]}},{"type":"Feature","properties":{"OBJECTID":3737,"COD_MPIO":"15001","X_LONG":-73.3881875099,"Y_LAT":5.55892103977,"direccion_":"LT 4B","DIRECC_NOR":null,"Fecha_actu":"2022-12-01","VEREDA_V1":"TRAS DEL ALTO","VEREDA_V2":"TRAS DEL ALTO","Criterio_u":null},"geometry":{"type":"Point","coordinates":[-73.388188,5.558921]}},{"type":"Feature","properties":{"OBJECTID":3738,"COD_MPIO":"15001","X_LONG":-73.38980835,"Y_LAT":5.55728876037,"direccion_":"LT 3C","DIRECC_NOR":null,"Fecha_actu":"2022-12-01","VEREDA_V1":"TRAS DEL ALTO","VEREDA_V2":"TRAS DEL ALTO","Criterio_u":null},"geometry":{"type":"Point","coordinates":[-73.389808,5.557289]}},{"type":"Feature","properties":{"OBJECTID":3739,"COD_MPIO":"15001","X_LONG":-73.3872482598,"Y_LAT":5.55953831014,"direccion_":"DE GASTOS 2","DIRECC_NOR":null,"Fecha_actu":"2022-12-01","VEREDA_V1":"TRAS DEL ALTO","VEREDA_V2":"TRAS DEL ALTO","Criterio_u":null},"geometry":{"type":"Point","coordinates":[-73.387248,5.559538]}},{"type":"Feature","properties":{"OBJECTID":3740,"COD_MPIO":"15001","X_LONG":-73.3818059396,"Y_LAT":5.55923887008,"direccion_":"SAN ANDRES","DIRECC_NOR":null,"Fecha_actu":"2022-12-01","VEREDA_V1":"TRAS DEL ALTO","VEREDA_V2":"TRAS DEL ALTO","Criterio_u":null},"geometry":{"type":"Point","coordinates":[-73.381806,5.559239]}},{"type":"Feature","properties":{"OBJECTID":3741,"COD_MPIO":"15001","X_LONG":-73.379839143,"Y_LAT":5.55159107946,"direccion_":"LA FLORIDA","DIRECC_NOR":null,"Fecha_actu":"2022-12-01","VEREDA_V1":"TRAS DEL ALTO","VEREDA_V2":"TRAS DEL ALTO","Criterio_u":null},"geometry":{"type":"Point","coordinates":[-73.379839,5.551591]}},{"type":"Feature","properties":{"OBJECTID":3743,"COD_MPIO":"15001","X_LONG":-73.4212389702,"Y_LAT":5.55727472015,"direccion_":"EL ARRAYAN","DIRECC_NOR":null,"Fecha_actu":"2022-12-01","VEREDA_V1":"TRAS DEL ALTO","VEREDA_V2":"TRAS DEL ALTO","Criterio_u":null},"geometry":{"type":"Point","coordinates":[-73.421239,5.557275]}},{"type":"Feature","properties":{"OBJECTID":3744,"COD_MPIO":"15001","X_LONG":-73.38248003,"Y_LAT":5.55699400037,"direccion_":"EL PENCO","DIRECC_NOR":null,"Fecha_actu":"2022-12-01","VEREDA_V1":"TRAS DEL ALTO","VEREDA_V2":"TRAS DEL ALTO","Criterio_u":null},"geometry":{"type":"Point","coordinates":[-73.38248,5.556994]}},{"type":"Feature","properties":{"OBJECTID":3745,"COD_MPIO":"15001","X_LONG":-73.4002562301,"Y_LAT":5.54687177012,"direccion_":"LA LAGUNA","DIRECC_NOR":null,"Fecha_actu":"2022-12-01","VEREDA_V1":"TRAS DEL ALTO","VEREDA_V2":"TRAS DEL ALTO","Criterio_u":null},"geometry":{"type":"Point","coordinates":[-73.400256,5.546872]}},{"type":"Feature","properties":{"OBJECTID":3755,"COD_MPIO":"15001","X_LONG":-73.4039684796,"Y_LAT":5.5476785798,"direccion_":"EL PARAISO","DIRECC_NOR":null,"Fecha_actu":"2022-12-01","VEREDA_V1":"TRAS DEL ALTO","VEREDA_V2":"TRAS DEL ALTO","Criterio_u":null},"geometry":{"type":"Point","coordinates":[-73.403968,5.547679]}},{"type":"Feature","properties":{"OBJECTID":3756,"COD_MPIO":"15001","X_LONG":-73.37707519,"Y_LAT":5.55072162031,"direccion_":"EL PEDREGAL","DIRECC_NOR":null,"Fecha_actu":"2022-12-01","VEREDA_V1":"TRAS DEL ALTO","VEREDA_V2":"TRAS DEL ALTO","Criterio_u":null},"geometry":{"type":"Point","coordinates":[-73.377075,5.550722]}},{"type":"Feature","properties":{"OBJECTID":3761,"COD_MPIO":"15001","X_LONG":-73.38895579,"Y_LAT":5.54408766961,"direccion_":"SAN CARLOS","DIRECC_NOR":null,"Fecha_actu":"2022-12-01","VEREDA_V1":"TRAS DEL ALTO","VEREDA_V2":"TRAS DEL ALTO","Criterio_u":null},"geometry":{"type":"Point","coordinates":[-73.388956,5.544088]}},{"type":"Feature","properties":{"OBJECTID":3770,"COD_MPIO":"15001","X_LONG":-73.4029520703,"Y_LAT":5.54758065982,"direccion_":"LOS SAUCES","DIRECC_NOR":null,"Fecha_actu":"2022-12-01","VEREDA_V1":"TRAS DEL ALTO","VEREDA_V2":"TRAS DEL ALTO","Criterio_u":null},"geometry":{"type":"Point","coordinates":[-73.402952,5.547581]}},{"type":"Feature","properties":{"OBJECTID":3774,"COD_MPIO":"15001","X_LONG":-73.4219827698,"Y_LAT":5.55825982043,"direccion_":"EL REPOSO","DIRECC_NOR":null,"Fecha_actu":"2022-12-01","VEREDA_V1":"TRAS DEL ALTO","VEREDA_V2":"TRAS DEL ALTO","Criterio_u":null},"geometry":{"type":"Point","coordinates":[-73.421983,5.55826]}},{"type":"Feature","properties":{"OBJECTID":3775,"COD_MPIO":"15001","X_LONG":-73.4213206601,"Y_LAT":5.55865386019,"direccion_":"EL CUCHARO","DIRECC_NOR":null,"Fecha_actu":"2022-12-01","VEREDA_V1":"TRAS DEL ALTO","VEREDA_V2":"TRAS DEL ALTO","Criterio_u":null},"geometry":{"type":"Point","coordinates":[-73.421321,5.558654]}},{"type":"Feature","properties":{"OBJECTID":3776,"COD_MPIO":"15001","X_LONG":-73.4010249499,"Y_LAT":5.55527771979,"direccion_":"CASABLANCA","DIRECC_NOR":null,"Fecha_actu":"2022-12-01","VEREDA_V1":"TRAS DEL ALTO","VEREDA_V2":"TRAS DEL ALTO","Criterio_u":null},"geometry":{"type":"Point","coordinates":[-73.401025,5.555278]}},{"type":"Feature","properties":{"OBJECTID":3779,"COD_MPIO":"15001","X_LONG":-73.4065487604,"Y_LAT":5.55993719994,"direccion_":"V","DIRECC_NOR":null,"Fecha_actu":"2022-12-01","VEREDA_V1":"TRAS DEL ALTO","VEREDA_V2":"TRAS DEL ALTO","Criterio_u":null},"geometry":{"type":"Point","coordinates":[-73.406549,5.559937]}},{"type":"Feature","properties":{"OBJECTID":3782,"COD_MPIO":"15001","X_LONG":-73.4025053599,"Y_LAT":5.54840179031,"direccion_":"MERJORA","DIRECC_NOR":null,"Fecha_actu":"2022-12-01","VEREDA_V1":"TRAS DEL ALTO","VEREDA_V2":"TRAS DEL ALTO","Criterio_u":null},"geometry":{"type":"Point","coordinates":[-73.402505,5.548402]}},{"type":"Feature","properties":{"OBJECTID":3784,"COD_MPIO":"15001","X_LONG":-73.4106738697,"Y_LAT":5.5507888797,"direccion_":"EL TRIANGULO","DIRECC_NOR":null,"Fecha_actu":"2022-12-01","VEREDA_V1":"TRAS DEL ALTO","VEREDA_V2":"TRAS DEL ALTO","Criterio_u":null},"geometry":{"type":"Point","coordinates":[-73.410674,5.550789]}},{"type":"Feature","properties":{"OBJECTID":3789,"COD_MPIO":"15001","X_LONG":-73.3901121302,"Y_LAT":5.54388878994,"direccion_":"EL GUAYABITO","DIRECC_NOR":null,"Fecha_actu":"2022-12-01","VEREDA_V1":"TRAS DEL ALTO","VEREDA_V2":"TRAS DEL ALTO","Criterio_u":null},"geometry":{"type":"Point","coordinates":[-73.390112,5.543889]}},{"type":"Feature","properties":{"OBJECTID":3790,"COD_MPIO":"15001","X_LONG":-73.4068336,"Y_LAT":5.56109138986,"direccion_":"SANTA INES","DIRECC_NOR":null,"Fecha_actu":"2022-12-01","VEREDA_V1":"TRAS DEL ALTO","VEREDA_V2":"TRAS DEL ALTO","Criterio_u":null},"geometry":{"type":"Point","coordinates":[-73.406834,5.561091]}},{"type":"Feature","properties":{"OBJECTID":3791,"COD_MPIO":"15001","X_LONG":-73.3762610598,"Y_LAT":5.54592113995,"direccion_":"VILLA VALENCIA","DIRECC_NOR":null,"Fecha_actu":"2022-12-01","VEREDA_V1":"TRAS DEL ALTO","VEREDA_V2":"TRAS DEL ALTO","Criterio_u":null},"geometry":{"type":"Point","coordinates":[-73.376261,5.545921]}},{"type":"Feature","properties":{"OBJECTID":3792,"COD_MPIO":"15001","X_LONG":-73.4053688301,"Y_LAT":5.55700118955,"direccion_":"A","DIRECC_NOR":null,"Fecha_actu":"2022-12-01","VEREDA_V1":"TRAS DEL ALTO","VEREDA_V2":"TRAS DEL ALTO","Criterio_u":null},"geometry":{"type":"Point","coordinates":[-73.405369,5.557001]}},{"type":"Feature","properties":{"OBJECTID":3796,"COD_MPIO":"15001","X_LONG":-73.3798395468,"Y_LAT":5.5569357288,"direccion_":"LAS CORRALEJAS","DIRECC_NOR":null,"Fecha_actu":"2022-12-01","VEREDA_V1":"TRAS DEL ALTO","VEREDA_V2":"TRAS DEL ALTO","Criterio_u":null},"geometry":{"type":"Point","coordinates":[-73.37984,5.556936]}},{"type":"Feature","properties":{"OBJECTID":3798,"COD_MPIO":"15001","X_LONG":-73.3761169398,"Y_LAT":5.54853965008,"direccion_":"LA ES","DIRECC_NOR":null,"Fecha_actu":"2022-12-01","VEREDA_V1":"TRAS DEL ALTO","VEREDA_V2":"TRAS DEL ALTO","Criterio_u":null},"geometry":{"type":"Point","coordinates":[-73.376117,5.54854]}},{"type":"Feature","properties":{"OBJECTID":3799,"COD_MPIO":"15001","X_LONG":-73.4101612804,"Y_LAT":5.55622963959,"direccion_":"EL GRADO","DIRECC_NOR":null,"Fecha_actu":"2022-12-01","VEREDA_V1":"TRAS DEL ALTO","VEREDA_V2":"TRAS DEL ALTO","Criterio_u":null},"geometry":{"type":"Point","coordinates":[-73.410161,5.55623]}},{"type":"Feature","properties":{"OBJECTID":5118,"COD_MPIO":"15001","X_LONG":-73.3976599153,"Y_LAT":5.55380278577,"direccion_":"","DIRECC_NOR":null,"Fecha_actu":"2023-01-17","VEREDA_V1":"TRAS DEL ALTO","VEREDA_V2":"TRAS DEL ALTO","Criterio_u":"Malla vial"},"geometry":{"type":"Point","coordinates":[-73.39766,5.553803]}},{"type":"Feature","properties":{"OBJECTID":5119,"COD_MPIO":"15001","X_LONG":-73.4017183893,"Y_LAT":5.55119640749,"direccion_":"","DIRECC_NOR":null,"Fecha_actu":"2023-01-17","VEREDA_V1":"TRAS DEL ALTO","VEREDA_V2":"TRAS DEL ALTO","Criterio_u":"Malla vial"},"geometry":{"type":"Point","coordinates":[-73.401718,5.551196]}},{"type":"Feature","properties":{"OBJECTID":5120,"COD_MPIO":"15001","X_LONG":-73.4018873521,"Y_LAT":5.55089298702,"direccion_":"","DIRECC_NOR":null,"Fecha_actu":"2023-01-17","VEREDA_V1":"TRAS DEL ALTO","VEREDA_V2":"TRAS DEL ALTO","Criterio_u":"Malla vial"},"geometry":{"type":"Point","coordinates":[-73.401887,5.550893]}},{"type":"Feature","properties":{"OBJECTID":5121,"COD_MPIO":"15001","X_LONG":-73.4214994543,"Y_LAT":5.54810101475,"direccion_":"","DIRECC_NOR":null,"Fecha_actu":"2023-01-17","VEREDA_V1":"TRAS DEL ALTO","VEREDA_V2":"TRAS DEL ALTO","Criterio_u":"Malla vial"},"geometry":{"type":"Point","coordinates":[-73.421499,5.548101]}},{"type":"Feature","properties":{"OBJECTID":5122,"COD_MPIO":"15001","X_LONG":-73.4013619727,"Y_LAT":5.55588330347,"direccion_":"","DIRECC_NOR":null,"Fecha_actu":"2023-01-17","VEREDA_V1":"TRAS DEL ALTO","VEREDA_V2":"TRAS DEL ALTO","Criterio_u":"Malla vial"},"geometry":{"type":"Point","coordinates":[-73.401362,5.555883]}},{"type":"Feature","properties":{"OBJECTID":5123,"COD_MPIO":"15001","X_LONG":-73.400297518,"Y_LAT":5.55686398718,"direccion_":"","DIRECC_NOR":null,"Fecha_actu":"2023-01-17","VEREDA_V1":"TRAS DEL ALTO","VEREDA_V2":"TRAS DEL ALTO","Criterio_u":"Malla vial"},"geometry":{"type":"Point","coordinates":[-73.400298,5.556864]}},{"type":"Feature","properties":{"OBJECTID":5124,"COD_MPIO":"15001","X_LONG":-73.4167704287,"Y_LAT":5.55321648445,"direccion_":"","DIRECC_NOR":null,"Fecha_actu":"2023-01-17","VEREDA_V1":"TRAS DEL ALTO","VEREDA_V2":"TRAS DEL ALTO","Criterio_u":"Malla vial"},"geometry":{"type":"Point","coordinates":[-73.41677,5.553216]}},{"type":"Feature","properties":{"OBJECTID":5125,"COD_MPIO":"15001","X_LONG":-73.4021274387,"Y_LAT":5.5519680267,"direccion_":"","DIRECC_NOR":null,"Fecha_actu":"2023-01-17","VEREDA_V1":"TRAS DEL ALTO","VEREDA_V2":"TRAS DEL ALTO","Criterio_u":"Malla vial"},"geometry":{"type":"Point","coordinates":[-73.402127,5.551968]}},{"type":"Feature","properties":{"OBJECTID":5126,"COD_MPIO":"15001","X_LONG":-73.4238038879,"Y_LAT":5.54556671353,"direccion_":"","DIRECC_NOR":null,"Fecha_actu":"2023-01-17","VEREDA_V1":"TRAS DEL ALTO","VEREDA_V2":"TRAS DEL ALTO","Criterio_u":"Malla vial"},"geometry":{"type":"Point","coordinates":[-73.423804,5.545567]}},{"type":"Feature","properties":{"OBJECTID":5127,"COD_MPIO":"15001","X_LONG":-73.4064299114,"Y_LAT":5.5531912135,"direccion_":"","DIRECC_NOR":null,"Fecha_actu":"2023-01-17","VEREDA_V1":"TRAS DEL ALTO","VEREDA_V2":"TRAS DEL ALTO","Criterio_u":"Malla vial"},"geometry":{"type":"Point","coordinates":[-73.40643,5.553191]}},{"type":"Feature","properties":{"OBJECTID":5128,"COD_MPIO":"15001","X_LONG":-73.4017349809,"Y_LAT":5.55248719813,"direccion_":"","DIRECC_NOR":null,"Fecha_actu":"2023-01-17","VEREDA_V1":"TRAS DEL ALTO","VEREDA_V2":"TRAS DEL ALTO","Criterio_u":"Malla vial"},"geometry":{"type":"Point","coordinates":[-73.401735,5.552487]}},{"type":"Feature","properties":{"OBJECTID":5129,"COD_MPIO":"15001","X_LONG":-73.3959139364,"Y_LAT":5.54636034276,"direccion_":"","DIRECC_NOR":null,"Fecha_actu":"2023-01-17","VEREDA_V1":"TRAS DEL ALTO","VEREDA_V2":"TRAS DEL ALTO","Criterio_u":"Malla vial"},"geometry":{"type":"Point","coordinates":[-73.395914,5.54636]}},{"type":"Feature","properties":{"OBJECTID":5130,"COD_MPIO":"15001","X_LONG":-73.3972854637,"Y_LAT":5.54622434368,"direccion_":"","DIRECC_NOR":null,"Fecha_actu":"2023-01-17","VEREDA_V1":"TRAS DEL ALTO","VEREDA_V2":"TRAS DEL ALTO","Criterio_u":"Malla vial"},"geometry":{"type":"Point","coordinates":[-73.397285,5.546224]}},{"type":"Feature","properties":{"OBJECTID":5131,"COD_MPIO":"15001","X_LONG":-73.3968444181,"Y_LAT":5.54665566393,"direccion_":"","DIRECC_NOR":null,"Fecha_actu":"2023-01-17","VEREDA_V1":"TRAS DEL ALTO","VEREDA_V2":"TRAS DEL ALTO","Criterio_u":"Malla vial"},"geometry":{"type":"Point","coordinates":[-73.396844,5.546656]}},{"type":"Feature","properties":{"OBJECTID":5132,"COD_MPIO":"15001","X_LONG":-73.4012638629,"Y_LAT":5.55194471717,"direccion_":"","DIRECC_NOR":null,"Fecha_actu":"2023-01-17","VEREDA_V1":"TRAS DEL ALTO","VEREDA_V2":"TRAS DEL ALTO","Criterio_u":"Malla vial"},"geometry":{"type":"Point","coordinates":[-73.401264,5.551945]}},{"type":"Feature","properties":{"OBJECTID":5133,"COD_MPIO":"15001","X_LONG":-73.4015081179,"Y_LAT":5.551786298,"direccion_":"","DIRECC_NOR":null,"Fecha_actu":"2023-01-17","VEREDA_V1":"TRAS DEL ALTO","VEREDA_V2":"TRAS DEL ALTO","Criterio_u":"Malla vial"},"geometry":{"type":"Point","coordinates":[-73.401508,5.551786]}},{"type":"Feature","properties":{"OBJECTID":5134,"COD_MPIO":"15001","X_LONG":-73.4007729959,"Y_LAT":5.55425360422,"direccion_":"","DIRECC_NOR":null,"Fecha_actu":"2023-01-17","VEREDA_V1":"TRAS DEL ALTO","VEREDA_V2":"TRAS DEL ALTO","Criterio_u":"Malla vial"},"geometry":{"type":"Point","coordinates":[-73.400773,5.554254]}},{"type":"Feature","properties":{"OBJECTID":5135,"COD_MPIO":"15001","X_LONG":-73.402438874,"Y_LAT":5.55069123221,"direccion_":"","DIRECC_NOR":null,"Fecha_actu":"2023-01-17","VEREDA_V1":"TRAS DEL ALTO","VEREDA_V2":"TRAS DEL ALTO","Criterio_u":"Malla vial"},"geometry":{"type":"Point","coordinates":[-73.402439,5.550691]}},{"type":"Feature","properties":{"OBJECTID":5136,"COD_MPIO":"15001","X_LONG":-73.4025606691,"Y_LAT":5.55143055408,"direccion_":"","DIRECC_NOR":null,"Fecha_actu":"2023-01-17","VEREDA_V1":"TRAS DEL ALTO","VEREDA_V2":"TRAS DEL ALTO","Criterio_u":"Malla vial"},"geometry":{"type":"Point","coordinates":[-73.402561,5.551431]}},{"type":"Feature","properties":{"OBJECTID":5137,"COD_MPIO":"15001","X_LONG":-73.4042994274,"Y_LAT":5.55059281221,"direccion_":"","DIRECC_NOR":null,"Fecha_actu":"2023-01-17","VEREDA_V1":"TRAS DEL ALTO","VEREDA_V2":"TRAS DEL ALTO","Criterio_u":"Malla vial"},"geometry":{"type":"Point","coordinates":[-73.404299,5.550593]}},{"type":"Feature","properties":{"OBJECTID":5138,"COD_MPIO":"15001","X_LONG":-73.4106189022,"Y_LAT":5.55717359768,"direccion_":"","DIRECC_NOR":null,"Fecha_actu":"2023-01-17","VEREDA_V1":"TRAS DEL ALTO","VEREDA_V2":"TRAS DEL ALTO","Criterio_u":"Malla vial"},"geometry":{"type":"Point","coordinates":[-73.410619,5.557174]}},{"type":"Feature","properties":{"OBJECTID":5139,"COD_MPIO":"15001","X_LONG":-73.4114174993,"Y_LAT":5.55799518323,"direccion_":"","DIRECC_NOR":null,"Fecha_actu":"2023-01-17","VEREDA_V1":"TRAS DEL ALTO","VEREDA_V2":"TRAS DEL ALTO","Criterio_u":"Malla vial"},"geometry":{"type":"Point","coordinates":[-73.411417,5.557995]}},{"type":"Feature","properties":{"OBJECTID":5140,"COD_MPIO":"15001","X_LONG":-73.4070968675,"Y_LAT":5.56048640243,"direccion_":"","DIRECC_NOR":null,"Fecha_actu":"2023-01-17","VEREDA_V1":"TRAS DEL ALTO","VEREDA_V2":"TRAS DEL ALTO","Criterio_u":"Malla vial"},"geometry":{"type":"Point","coordinates":[-73.407097,5.560486]}},{"type":"Feature","properties":{"OBJECTID":5141,"COD_MPIO":"15001","X_LONG":-73.407661157,"Y_LAT":5.54847072245,"direccion_":"","DIRECC_NOR":null,"Fecha_actu":"2023-01-17","VEREDA_V1":"TRAS DEL ALTO","VEREDA_V2":"TRAS DEL ALTO","Criterio_u":"Malla vial"},"geometry":{"type":"Point","coordinates":[-73.407661,5.548471]}},{"type":"Feature","properties":{"OBJECTID":5142,"COD_MPIO":"15001","X_LONG":-73.3968167973,"Y_LAT":5.5569005761,"direccion_":"","DIRECC_NOR":null,"Fecha_actu":"2023-01-17","VEREDA_V1":"TRAS DEL ALTO","VEREDA_V2":"TRAS DEL ALTO","Criterio_u":"Malla vial"},"geometry":{"type":"Point","coordinates":[-73.396817,5.556901]}},{"type":"Feature","properties":{"OBJECTID":5143,"COD_MPIO":"15001","X_LONG":-73.3963478611,"Y_LAT":5.55728385636,"direccion_":"","DIRECC_NOR":null,"Fecha_actu":"2023-01-17","VEREDA_V1":"TRAS DEL ALTO","VEREDA_V2":"TRAS DEL ALTO","Criterio_u":"Malla vial"},"geometry":{"type":"Point","coordinates":[-73.396348,5.557284]}},{"type":"Feature","properties":{"OBJECTID":5144,"COD_MPIO":"15001","X_LONG":-73.4067141817,"Y_LAT":5.556564968,"direccion_":"","DIRECC_NOR":null,"Fecha_actu":"2023-01-17","VEREDA_V1":"TRAS DEL ALTO","VEREDA_V2":"TRAS DEL ALTO","Criterio_u":"Malla vial"},"geometry":{"type":"Point","coordinates":[-73.406714,5.556565]}},{"type":"Feature","properties":{"OBJECTID":5145,"COD_MPIO":"15001","X_LONG":-73.4208102832,"Y_LAT":5.54738842344,"direccion_":"","DIRECC_NOR":null,"Fecha_actu":"2023-01-17","VEREDA_V1":"TRAS DEL ALTO","VEREDA_V2":"TRAS DEL ALTO","Criterio_u":"Malla vial"},"geometry":{"type":"Point","coordinates":[-73.42081,5.547388]}},{"type":"Feature","properties":{"OBJECTID":5146,"COD_MPIO":"15001","X_LONG":-73.3963591682,"Y_LAT":5.54709121189,"direccion_":"","DIRECC_NOR":null,"Fecha_actu":"2023-01-17","VEREDA_V1":"TRAS DEL ALTO","VEREDA_V2":"TRAS DEL ALTO","Criterio_u":"Malla vial"},"geometry":{"type":"Point","coordinates":[-73.396359,5.547091]}},{"type":"Feature","properties":{"OBJECTID":5147,"COD_MPIO":"15001","X_LONG":-73.3965578842,"Y_LAT":5.54694925211,"direccion_":"","DIRECC_NOR":null,"Fecha_actu":"2023-01-17","VEREDA_V1":"TRAS DEL ALTO","VEREDA_V2":"TRAS DEL ALTO","Criterio_u":"Malla vial"},"geometry":{"type":"Point","coordinates":[-73.396558,5.546949]}},{"type":"Feature","properties":{"OBJECTID":5148,"COD_MPIO":"15001","X_LONG":-73.4045756092,"Y_LAT":5.55081262001,"direccion_":"","DIRECC_NOR":null,"Fecha_actu":"2023-01-17","VEREDA_V1":"TRAS DEL ALTO","VEREDA_V2":"TRAS DEL ALTO","Criterio_u":"Malla vial"},"geometry":{"type":"Point","coordinates":[-73.404576,5.550813]}},{"type":"Feature","properties":{"OBJECTID":5149,"COD_MPIO":"15001","X_LONG":-73.4132241591,"Y_LAT":5.55711750247,"direccion_":"","DIRECC_NOR":null,"Fecha_actu":"2023-01-17","VEREDA_V1":"TRAS DEL ALTO","VEREDA_V2":"TRAS DEL ALTO","Criterio_u":"Malla vial"},"geometry":{"type":"Point","coordinates":[-73.413224,5.557118]}},{"type":"Feature","properties":{"OBJECTID":5150,"COD_MPIO":"15001","X_LONG":-73.4054247131,"Y_LAT":5.54740552584,"direccion_":"","DIRECC_NOR":null,"Fecha_actu":"2023-01-17","VEREDA_V1":"TRAS DEL ALTO","VEREDA_V2":"TRAS DEL ALTO","Criterio_u":"Malla vial"},"geometry":{"type":"Point","coordinates":[-73.405425,5.547406]}},{"type":"Feature","properties":{"OBJECTID":5151,"COD_MPIO":"15001","X_LONG":-73.4047809694,"Y_LAT":5.54970999452,"direccion_":"","DIRECC_NOR":null,"Fecha_actu":"2023-01-17","VEREDA_V1":"TRAS DEL ALTO","VEREDA_V2":"TRAS DEL ALTO","Criterio_u":"Malla vial"},"geometry":{"type":"Point","coordinates":[-73.404781,5.54971]}},{"type":"Feature","properties":{"OBJECTID":5152,"COD_MPIO":"15001","X_LONG":-73.4044734885,"Y_LAT":5.55772166882,"direccion_":"","DIRECC_NOR":null,"Fecha_actu":"2023-01-17","VEREDA_V1":"TRAS DEL ALTO","VEREDA_V2":"TRAS DEL ALTO","Criterio_u":"Malla vial"},"geometry":{"type":"Point","coordinates":[-73.404473,5.557722]}},{"type":"Feature","properties":{"OBJECTID":5153,"COD_MPIO":"15001","X_LONG":-73.4153113839,"Y_LAT":5.55759850307,"direccion_":"","DIRECC_NOR":null,"Fecha_actu":"2023-01-17","VEREDA_V1":"TRAS DEL ALTO","VEREDA_V2":"TRAS DEL ALTO","Criterio_u":"Malla vial"},"geometry":{"type":"Point","coordinates":[-73.415311,5.557599]}},{"type":"Feature","properties":{"OBJECTID":5154,"COD_MPIO":"15001","X_LONG":-73.4163853723,"Y_LAT":5.55663555579,"direccion_":"","DIRECC_NOR":null,"Fecha_actu":"2023-01-17","VEREDA_V1":"TRAS DEL ALTO","VEREDA_V2":"TRAS DEL ALTO","Criterio_u":"Malla vial"},"geometry":{"type":"Point","coordinates":[-73.416385,5.556636]}},{"type":"Feature","properties":{"OBJECTID":5155,"COD_MPIO":"15001","X_LONG":-73.402765863,"Y_LAT":5.56004251505,"direccion_":"","DIRECC_NOR":null,"Fecha_actu":"2023-01-17","VEREDA_V1":"TRAS DEL ALTO","VEREDA_V2":"TRAS DEL ALTO","Criterio_u":"Malla vial"},"geometry":{"type":"Point","coordinates":[-73.402766,5.560043]}},{"type":"Feature","properties":{"OBJECTID":5156,"COD_MPIO":"15001","X_LONG":-73.4143972338,"Y_LAT":5.55663933024,"direccion_":"","DIRECC_NOR":null,"Fecha_actu":"2023-01-17","VEREDA_V1":"TRAS DEL ALTO","VEREDA_V2":"TRAS DEL ALTO","Criterio_u":"Malla vial"},"geometry":{"type":"Point","coordinates":[-73.414397,5.556639]}},{"type":"Feature","properties":{"OBJECTID":5157,"COD_MPIO":"15001","X_LONG":-73.4143447251,"Y_LAT":5.55671114111,"direccion_":"","DIRECC_NOR":null,"Fecha_actu":"2023-01-17","VEREDA_V1":"TRAS DEL ALTO","VEREDA_V2":"TRAS DEL ALTO","Criterio_u":"Malla vial"},"geometry":{"type":"Point","coordinates":[-73.414345,5.556711]}},{"type":"Feature","properties":{"OBJECTID":5158,"COD_MPIO":"15001","X_LONG":-73.41601868,"Y_LAT":5.55660698432,"direccion_":"","DIRECC_NOR":null,"Fecha_actu":"2023-01-17","VEREDA_V1":"TRAS DEL ALTO","VEREDA_V2":"TRAS DEL ALTO","Criterio_u":"Malla vial"},"geometry":{"type":"Point","coordinates":[-73.416019,5.556607]}},{"type":"Feature","properties":{"OBJECTID":5159,"COD_MPIO":"15001","X_LONG":-73.4052140685,"Y_LAT":5.5534176502,"direccion_":"","DIRECC_NOR":null,"Fecha_actu":"2023-01-17","VEREDA_V1":"TRAS DEL ALTO","VEREDA_V2":"TRAS DEL ALTO","Criterio_u":"Malla vial"},"geometry":{"type":"Point","coordinates":[-73.405214,5.553418]}},{"type":"Feature","properties":{"OBJECTID":5160,"COD_MPIO":"15001","X_LONG":-73.4058277065,"Y_LAT":5.55700830139,"direccion_":"","DIRECC_NOR":null,"Fecha_actu":"2023-01-17","VEREDA_V1":"TRAS DEL ALTO","VEREDA_V2":"TRAS DEL ALTO","Criterio_u":"Malla vial"},"geometry":{"type":"Point","coordinates":[-73.405828,5.557008]}},{"type":"Feature","properties":{"OBJECTID":5161,"COD_MPIO":"15001","X_LONG":-73.4031287898,"Y_LAT":5.55501615287,"direccion_":"","DIRECC_NOR":null,"Fecha_actu":"2023-01-17","VEREDA_V1":"TRAS DEL ALTO","VEREDA_V2":"TRAS DEL ALTO","Criterio_u":"Malla vial"},"geometry":{"type":"Point","coordinates":[-73.403129,5.555016]}},{"type":"Feature","properties":{"OBJECTID":5162,"COD_MPIO":"15001","X_LONG":-73.4134621593,"Y_LAT":5.55385425217,"direccion_":"","DIRECC_NOR":null,"Fecha_actu":"2023-01-17","VEREDA_V1":"TRAS DEL ALTO","VEREDA_V2":"TRAS DEL ALTO","Criterio_u":"Malla vial"},"geometry":{"type":"Point","coordinates":[-73.413462,5.553854]}},{"type":"Feature","properties":{"OBJECTID":5163,"COD_MPIO":"15001","X_LONG":-73.4029875548,"Y_LAT":5.55008298654,"direccion_":"","DIRECC_NOR":null,"Fecha_actu":"2023-01-17","VEREDA_V1":"TRAS DEL ALTO","VEREDA_V2":"TRAS DEL ALTO","Criterio_u":"Malla vial"},"geometry":{"type":"Point","coordinates":[-73.402988,5.550083]}},{"type":"Feature","properties":{"OBJECTID":5164,"COD_MPIO":"15001","X_LONG":-73.4034172914,"Y_LAT":5.5498926846,"direccion_":"","DIRECC_NOR":null,"Fecha_actu":"2023-01-17","VEREDA_V1":"TRAS DEL ALTO","VEREDA_V2":"TRAS DEL ALTO","Criterio_u":"Malla vial"},"geometry":{"type":"Point","coordinates":[-73.403417,5.549893]}},{"type":"Feature","properties":{"OBJECTID":5165,"COD_MPIO":"15001","X_LONG":-73.4086938054,"Y_LAT":5.55942709099,"direccion_":"","DIRECC_NOR":null,"Fecha_actu":"2023-01-17","VEREDA_V1":"TRAS DEL ALTO","VEREDA_V2":"TRAS DEL ALTO","Criterio_u":"Malla vial"},"geometry":{"type":"Point","coordinates":[-73.408694,5.559427]}},{"type":"Feature","properties":{"OBJECTID":5166,"COD_MPIO":"15001","X_LONG":-73.4076517717,"Y_LAT":5.56074702595,"direccion_":"","DIRECC_NOR":null,"Fecha_actu":"2023-01-17","VEREDA_V1":"TRAS DEL ALTO","VEREDA_V2":"TRAS DEL ALTO","Criterio_u":"Malla vial"},"geometry":{"type":"Point","coordinates":[-73.407652,5.560747]}},{"type":"Feature","properties":{"OBJECTID":5167,"COD_MPIO":"15001","X_LONG":-73.4067262515,"Y_LAT":5.55344111711,"direccion_":"","DIRECC_NOR":null,"Fecha_actu":"2023-01-17","VEREDA_V1":"TRAS DEL ALTO","VEREDA_V2":"TRAS DEL ALTO","Criterio_u":"Malla vial"},"geometry":{"type":"Point","coordinates":[-73.406726,5.553441]}},{"type":"Feature","properties":{"OBJECTID":5168,"COD_MPIO":"15001","X_LONG":-73.4101117988,"Y_LAT":5.55701512994,"direccion_":"","DIRECC_NOR":null,"Fecha_actu":"2023-01-17","VEREDA_V1":"TRAS DEL ALTO","VEREDA_V2":"TRAS DEL ALTO","Criterio_u":"Malla vial"},"geometry":{"type":"Point","coordinates":[-73.410112,5.557015]}},{"type":"Feature","properties":{"OBJECTID":5169,"COD_MPIO":"15001","X_LONG":-73.404720713,"Y_LAT":5.55764300152,"direccion_":"","DIRECC_NOR":null,"Fecha_actu":"2023-01-17","VEREDA_V1":"TRAS DEL ALTO","VEREDA_V2":"TRAS DEL ALTO","Criterio_u":"Malla vial"},"geometry":{"type":"Point","coordinates":[-73.404721,5.557643]}},{"type":"Feature","properties":{"OBJECTID":5170,"COD_MPIO":"15001","X_LONG":-73.400928691,"Y_LAT":5.55389139147,"direccion_":"","DIRECC_NOR":null,"Fecha_actu":"2023-01-17","VEREDA_V1":"TRAS DEL ALTO","VEREDA_V2":"TRAS DEL ALTO","Criterio_u":"Malla vial"},"geometry":{"type":"Point","coordinates":[-73.400929,5.553891]}},{"type":"Feature","properties":{"OBJECTID":5171,"COD_MPIO":"15001","X_LONG":-73.4004994599,"Y_LAT":5.55274807077,"direccion_":"","DIRECC_NOR":null,"Fecha_actu":"2023-01-17","VEREDA_V1":"TRAS DEL ALTO","VEREDA_V2":"TRAS DEL ALTO","Criterio_u":"Malla vial"},"geometry":{"type":"Point","coordinates":[-73.400499,5.552748]}},{"type":"Feature","properties":{"OBJECTID":5172,"COD_MPIO":"15001","X_LONG":-73.4006904021,"Y_LAT":5.5530466214,"direccion_":"","DIRECC_NOR":null,"Fecha_actu":"2023-01-17","VEREDA_V1":"TRAS DEL ALTO","VEREDA_V2":"TRAS DEL ALTO","Criterio_u":"Malla vial"},"geometry":{"type":"Point","coordinates":[-73.40069,5.553047]}},{"type":"Feature","properties":{"OBJECTID":5173,"COD_MPIO":"15001","X_LONG":-73.4069458273,"Y_LAT":5.54796165491,"direccion_":"","DIRECC_NOR":null,"Fecha_actu":"2023-01-17","VEREDA_V1":"TRAS DEL ALTO","VEREDA_V2":"TRAS DEL ALTO","Criterio_u":"Malla vial"},"geometry":{"type":"Point","coordinates":[-73.406946,5.547962]}},{"type":"Feature","properties":{"OBJECTID":5174,"COD_MPIO":"15001","X_LONG":-73.398105211,"Y_LAT":5.54583514947,"direccion_":"","DIRECC_NOR":null,"Fecha_actu":"2023-01-17","VEREDA_V1":"TRAS DEL ALTO","VEREDA_V2":"TRAS DEL ALTO","Criterio_u":"Malla vial"},"geometry":{"type":"Point","coordinates":[-73.398105,5.545835]}},{"type":"Feature","properties":{"OBJECTID":5175,"COD_MPIO":"15001","X_LONG":-73.4047871207,"Y_LAT":5.55126753397,"direccion_":"","DIRECC_NOR":null,"Fecha_actu":"2023-01-17","VEREDA_V1":"TRAS DEL ALTO","VEREDA_V2":"TRAS DEL ALTO","Criterio_u":"Malla vial"},"geometry":{"type":"Point","coordinates":[-73.404787,5.551268]}},{"type":"Feature","properties":{"OBJECTID":5176,"COD_MPIO":"15001","X_LONG":-73.403469408,"Y_LAT":5.55521533472,"direccion_":"","DIRECC_NOR":null,"Fecha_actu":"2023-01-17","VEREDA_V1":"TRAS DEL ALTO","VEREDA_V2":"TRAS DEL ALTO","Criterio_u":"Malla vial"},"geometry":{"type":"Point","coordinates":[-73.403469,5.555215]}},{"type":"Feature","properties":{"OBJECTID":5177,"COD_MPIO":"15001","X_LONG":-73.3997145622,"Y_LAT":5.54622906332,"direccion_":"","DIRECC_NOR":null,"Fecha_actu":"2023-01-17","VEREDA_V1":"TRAS DEL ALTO","VEREDA_V2":"TRAS DEL ALTO","Criterio_u":"Malla vial"},"geometry":{"type":"Point","coordinates":[-73.399715,5.546229]}},{"type":"Feature","properties":{"OBJECTID":5178,"COD_MPIO":"15001","X_LONG":-73.4044147187,"Y_LAT":5.54939097621,"direccion_":"","DIRECC_NOR":null,"Fecha_actu":"2023-01-17","VEREDA_V1":"TRAS DEL ALTO","VEREDA_V2":"TRAS DEL ALTO","Criterio_u":"Malla vial"},"geometry":{"type":"Point","coordinates":[-73.404415,5.549391]}},{"type":"Feature","properties":{"OBJECTID":5179,"COD_MPIO":"15001","X_LONG":-73.4046813946,"Y_LAT":5.54962367489,"direccion_":"","DIRECC_NOR":null,"Fecha_actu":"2023-01-17","VEREDA_V1":"TRAS DEL ALTO","VEREDA_V2":"TRAS DEL ALTO","Criterio_u":"Malla vial"},"geometry":{"type":"Point","coordinates":[-73.404681,5.549624]}},{"type":"Feature","properties":{"OBJECTID":5180,"COD_MPIO":"15001","X_LONG":-73.396005026,"Y_LAT":5.54593677916,"direccion_":"","DIRECC_NOR":null,"Fecha_actu":"2023-01-17","VEREDA_V1":"TRAS DEL ALTO","VEREDA_V2":"TRAS DEL ALTO","Criterio_u":"Malla vial"},"geometry":{"type":"Point","coordinates":[-73.396005,5.545937]}},{"type":"Feature","properties":{"OBJECTID":5181,"COD_MPIO":"15001","X_LONG":-73.4001031502,"Y_LAT":5.5461817347,"direccion_":"","DIRECC_NOR":null,"Fecha_actu":"2023-01-17","VEREDA_V1":"TRAS DEL ALTO","VEREDA_V2":"TRAS DEL ALTO","Criterio_u":"Malla vial"},"geometry":{"type":"Point","coordinates":[-73.400103,5.546182]}},{"type":"Feature","properties":{"OBJECTID":5182,"COD_MPIO":"15001","X_LONG":-73.4027462586,"Y_LAT":5.54901606234,"direccion_":"","DIRECC_NOR":null,"Fecha_actu":"2023-01-17","VEREDA_V1":"TRAS DEL ALTO","VEREDA_V2":"TRAS DEL ALTO","Criterio_u":"Malla vial"},"geometry":{"type":"Point","coordinates":[-73.402746,5.549016]}},{"type":"Feature","properties":{"OBJECTID":5183,"COD_MPIO":"15001","X_LONG":-73.4051558113,"Y_LAT":5.55749863515,"direccion_":"","DIRECC_NOR":null,"Fecha_actu":"2023-01-17","VEREDA_V1":"TRAS DEL ALTO","VEREDA_V2":"TRAS DEL ALTO","Criterio_u":"Malla vial"},"geometry":{"type":"Point","coordinates":[-73.405156,5.557499]}},{"type":"Feature","properties":{"OBJECTID":5184,"COD_MPIO":"15001","X_LONG":-73.4042012142,"Y_LAT":5.55340063053,"direccion_":"","DIRECC_NOR":null,"Fecha_actu":"2023-01-17","VEREDA_V1":"TRAS DEL ALTO","VEREDA_V2":"TRAS DEL ALTO","Criterio_u":"Malla vial"},