{
"type": "FeatureCollection",
"name": "Consolidado_total_rural_2023",
"crs": { "type": "name", "properties": { "name": "urn:ogc:def:crs:EPSG::4686" } },
"features": [
{ "type": "Feature", "properties": { "OBJECTID": 1, "COD_MPIO": "15001", "X_LONG": -73.383984255900003, "Y_LAT": 5.5046430170600003, "direccion_": "SAN ANTONIO VDA RUNTA", "DIRECC_NOR": null, "Fecha_actu": "2022-12-01", "VEREDA_V1": "RUNTA", "VEREDA_V2": "RUNTA PARTE ALTA", "Criterio_u": null }, "geometry": { "type": "Point", "coordinates": [ -73.383984255868654, 5.504643017061653 ] } },
{ "type": "Feature", "properties": { "OBJECTID": 2, "COD_MPIO": "15001", "X_LONG": -73.381846787699999, "Y_LAT": 5.4910285808000001, "direccion_": "LA LAGUNA VDA RUNTA", "DIRECC_NOR": null, "Fecha_actu": "2022-12-01", "VEREDA_V1": "RUNTA", "VEREDA_V2": "RUNTA", "Criterio_u": null }, "geometry": { "type": "Point", "coordinates": [ -73.381846787699033, 5.491028580804425 ] } },
{ "type": "Feature", "properties": { "OBJECTID": 3, "COD_MPIO": "15001", "X_LONG": -73.410776490399996, "Y_LAT": 5.4544550201800002, "direccion_": "LAS MANITAS VDA LA LAJITA", "DIRECC_NOR": null, "Fecha_actu": "2022-12-01", "VEREDA_V1": "LA LAJITA", "VEREDA_V2": "LA LAJITA", "Criterio_u": null }, "geometry": { "type": "Point", "coordinates": [ -73.410776490442629, 5.454455020183104 ] } },
{ "type": "Feature", "properties": { "OBJECTID": 4, "COD_MPIO": "15001", "X_LONG": -73.424785399900003, "Y_LAT": 5.4549786198700003, "direccion_": "LC 9 VDA LA HOYA", "DIRECC_NOR": null, "Fecha_actu": "2022-12-01", "VEREDA_V1": "LA HOYA", "VEREDA_V2": "LA HOYA", "Criterio_u": null }, "geometry": { "type": "Point", "coordinates": [ -73.424785399926236, 5.454978619867461 ] } },
{ "type": "Feature", "properties": { "OBJECTID": 5, "COD_MPIO": "15001", "X_LONG": -73.410331610200004, "Y_LAT": 5.4533379102200001, "direccion_": "XXX VDA LA LAJITA", "DIRECC_NOR": null, "Fecha_actu": "2022-12-01", "VEREDA_V1": "LA LAJITA", "VEREDA_V2": "LA LAJITA", "Criterio_u": null }, "geometry": { "type": "Point", "coordinates": [ -73.410331610215621, 5.453337910216419 ] } },
{ "type": "Feature", "properties": { "OBJECTID": 6, "COD_MPIO": "15001", "X_LONG": -73.418446806399999, "Y_LAT": 5.45279094165, "direccion_": "SAN MATEO VDA LA LAJITA", "DIRECC_NOR": null, "Fecha_actu": "2022-12-01", "VEREDA_V1": "LA LAJITA", "VEREDA_V2": "LA LAJITA", "Criterio_u": null }, "geometry": { "type": "Point", "coordinates": [ -73.418446806374959, 5.452790941648686 ] } },
{ "type": "Feature", "properties": { "OBJECTID": 7, "COD_MPIO": "15001", "X_LONG": -73.410999599700006, "Y_LAT": 5.45394997981, "direccion_": "LA CAJITA VDA LA LAJITA", "DIRECC_NOR": null, "Fecha_actu": "2022-12-01", "VEREDA_V1": "LA LAJITA", "VEREDA_V2": "LA LAJITA", "Criterio_u": null }, "geometry": { "type": "Point", "coordinates": [ -73.410999599651745, 5.45394997980776 ] } },
{ "type": "Feature", "properties": { "OBJECTID": 8, "COD_MPIO": "15001", "X_LONG": -73.412694525800006, "Y_LAT": 5.4545095083100001, "direccion_": "CABANA SEGUNDA VDA LA LAJITA", "DIRECC_NOR": null, "Fecha_actu": "2022-12-01", "VEREDA_V1": "LA LAJITA", "VEREDA_V2": "LA LAJITA", "Criterio_u": null }, "geometry": { "type": "Point", "coordinates": [ -73.412694525831682, 5.454509508307183 ] } },
{ "type": "Feature", "properties": { "OBJECTID": 9, "COD_MPIO": "15001", "X_LONG": -73.426726420199998, "Y_LAT": 5.4539800504400002, "direccion_": "XXX VDA LA HOYA", "DIRECC_NOR": null, "Fecha_actu": "2022-12-01", "VEREDA_V1": "LA HOYA", "VEREDA_V2": "LA HOYA", "Criterio_u": null }, "geometry": { "type": "Point", "coordinates": [ -73.426726420188118, 5.453980050439043 ] } },
{ "type": "Feature", "properties": { "OBJECTID": 10, "COD_MPIO": "15001", "X_LONG": -73.435612509799995, "Y_LAT": 5.4550631696299998, "direccion_": "LA ESPERANZA VDA LA HOYA", "DIRECC_NOR": null, "Fecha_actu": "2022-12-01", "VEREDA_V1": "LA HOYA", "VEREDA_V2": "LA HOYA", "Criterio_u": null }, "geometry": { "type": "Point", "coordinates": [ -73.435612509809459, 5.455063169629625 ] } },
{ "type": "Feature", "properties": { "OBJECTID": 11, "COD_MPIO": "15001", "X_LONG": -73.419960029899997, "Y_LAT": 5.4473123697699997, "direccion_": "LA ESPERANZA VDA LA LAJITA", "DIRECC_NOR": null, "Fecha_actu": "2022-12-01", "VEREDA_V1": "LA LAJITA", "VEREDA_V2": "LA LAJITA", "Criterio_u": null }, "geometry": { "type": "Point", "coordinates": [ -73.419960029931417, 5.447312369770088 ] } },
{ "type": "Feature", "properties": { "OBJECTID": 12, "COD_MPIO": "15001", "X_LONG": -73.417485735100001, "Y_LAT": 5.4622624809299998, "direccion_": "LA LAJITA VDA LA LAJITA", "DIRECC_NOR": null, "Fecha_actu": "2022-12-01", "VEREDA_V1": "LA LAJITA", "VEREDA_V2": "LA LAJITA", "Criterio_u": null }, "geometry": { "type": "Point", "coordinates": [ -73.417485735078571, 5.462262480928814 ] } },
{ "type": "Feature", "properties": { "OBJECTID": 13, "COD_MPIO": "15001", "X_LONG": -73.434052688799994, "Y_LAT": 5.4626958219499997, "direccion_": "BUENOS AIRES VDA LA HOYA", "DIRECC_NOR": null, "Fecha_actu": "2022-12-01", "VEREDA_V1": "LA HOYA", "VEREDA_V2": "LA HOYA", "Criterio_u": null }, "geometry": { "type": "Point", "coordinates": [ -73.434052688780525, 5.46269582195464 ] } },
{ "type": "Feature", "properties": { "OBJECTID": 14, "COD_MPIO": "15001", "X_LONG": -73.435890549600003, "Y_LAT": 5.4781461899900004, "direccion_": "LA LAJITA VDA LA HOYA", "DIRECC_NOR": null, "Fecha_actu": "2022-12-01", "VEREDA_V1": "LA HOYA", "VEREDA_V2": "LA HOYA", "Criterio_u": null }, "geometry": { "type": "Point", "coordinates": [ -73.435890549609155, 5.478146189994732 ] } },
{ "type": "Feature", "properties": { "OBJECTID": 15, "COD_MPIO": "15001", "X_LONG": -73.434007180400002, "Y_LAT": 5.4822237899, "direccion_": "KR DE PIEDRAS VDA LA HOYA", "DIRECC_NOR": null, "Fecha_actu": "2022-12-01", "VEREDA_V1": "LA HOYA", "VEREDA_V2": "LA HOYA", "Criterio_u": null }, "geometry": { "type": "Point", "coordinates": [ -73.434007180387027, 5.482223789896011 ] } },
{ "type": "Feature", "properties": { "OBJECTID": 16, "COD_MPIO": "15001", "X_LONG": -73.431050839899996, "Y_LAT": 5.4713419598600002, "direccion_": "EL RECREO VDA LA HOYA", "DIRECC_NOR": null, "Fecha_actu": "2022-12-01", "VEREDA_V1": "LA HOYA", "VEREDA_V2": "LA HOYA", "Criterio_u": null }, "geometry": { "type": "Point", "coordinates": [ -73.431050839924296, 5.471341959863594 ] } },
{ "type": "Feature", "properties": { "OBJECTID": 17, "COD_MPIO": "15001", "X_LONG": -73.4186847247, "Y_LAT": 5.4629212343300004, "direccion_": "EL REFUGIO VDA LA LAJITA", "DIRECC_NOR": null, "Fecha_actu": "2022-12-01", "VEREDA_V1": "LA LAJITA", "VEREDA_V2": "LA LAJITA", "Criterio_u": null }, "geometry": { "type": "Point", "coordinates": [ -73.418684724720208, 5.462921234327553 ] } },
{ "type": "Feature", "properties": { "OBJECTID": 18, "COD_MPIO": "15001", "X_LONG": -73.389299321099998, "Y_LAT": 5.4807198185599999, "direccion_": "LT 5", "DIRECC_NOR": null, "Fecha_actu": "2022-12-01", "VEREDA_V1": "RUNTA", "VEREDA_V2": "RUNTA", "Criterio_u": null }, "geometry": { "type": "Point", "coordinates": [ -73.389299321106762, 5.480719818564808 ] } },
{ "type": "Feature", "properties": { "OBJECTID": 19, "COD_MPIO": "15001", "X_LONG": -73.425489039400006, "Y_LAT": 5.4826068812999997, "direccion_": "EL ARRAYAN VDA LA HOYA", "DIRECC_NOR": null, "Fecha_actu": "2022-12-01", "VEREDA_V1": "LA HOYA", "VEREDA_V2": "LA HOYA", "Criterio_u": null }, "geometry": { "type": "Point", "coordinates": [ -73.425489039387628, 5.482606881302559 ] } },
{ "type": "Feature", "properties": { "OBJECTID": 20, "COD_MPIO": "15001", "X_LONG": -73.432239015199997, "Y_LAT": 5.4703979037400003, "direccion_": "CA VDA LA HOYA", "DIRECC_NOR": null, "Fecha_actu": "2022-12-01", "VEREDA_V1": "LA HOYA", "VEREDA_V2": "LA HOYA", "Criterio_u": null }, "geometry": { "type": "Point", "coordinates": [ -73.432239015218329, 5.47039790374032 ] } },
{ "type": "Feature", "properties": { "OBJECTID": 21, "COD_MPIO": "15001", "X_LONG": -73.431879948299994, "Y_LAT": 5.4732150282500003, "direccion_": "EL JARDIN VDA LA HOYA LT 7", "DIRECC_NOR": null, "Fecha_actu": "2022-12-01", "VEREDA_V1": "LA HOYA", "VEREDA_V2": "LA HOYA", "Criterio_u": null }, "geometry": { "type": "Point", "coordinates": [ -73.431879948300946, 5.473215028250991 ] } },
{ "type": "Feature", "properties": { "OBJECTID": 22, "COD_MPIO": "15001", "X_LONG": -73.428331850299998, "Y_LAT": 5.47548834981, "direccion_": "EL RECUERDO VDA LA HOYA", "DIRECC_NOR": null, "Fecha_actu": "2022-12-01", "VEREDA_V1": "LA HOYA", "VEREDA_V2": "LA HOYA", "Criterio_u": null }, "geometry": { "type": "Point", "coordinates": [ -73.428331850334587, 5.475488349807563 ] } },
{ "type": "Feature", "properties": { "OBJECTID": 23, "COD_MPIO": "15001", "X_LONG": -73.441491872699999, "Y_LAT": 5.4688189199600004, "direccion_": "EL SALITRE VDA LA HOYA", "DIRECC_NOR": null, "Fecha_actu": "2022-12-01", "VEREDA_V1": "LA HOYA", "VEREDA_V2": "LA HOYA", "Criterio_u": null }, "geometry": { "type": "Point", "coordinates": [ -73.441491872651739, 5.468818919957243 ] } },
{ "type": "Feature", "properties": { "OBJECTID": 24, "COD_MPIO": "15001", "X_LONG": -73.434753700399995, "Y_LAT": 5.4814382797499999, "direccion_": "EL RIO VDA LA HOYA", "DIRECC_NOR": null, "Fecha_actu": "2022-12-01", "VEREDA_V1": "LA HOYA", "VEREDA_V2": "LA HOYA", "Criterio_u": null }, "geometry": { "type": "Point", "coordinates": [ -73.434753700422903, 5.481438279752865 ] } },
{ "type": "Feature", "properties": { "OBJECTID": 25, "COD_MPIO": "15001", "X_LONG": -73.394070146299995, "Y_LAT": 5.4799138155699998, "direccion_": "BUENAVISTA VDA RUNTA", "DIRECC_NOR": null, "Fecha_actu": "2022-12-01", "VEREDA_V1": "RUNTA", "VEREDA_V2": "RUNTA", "Criterio_u": null }, "geometry": { "type": "Point", "coordinates": [ -73.394070146320132, 5.479913815570171 ] } },
{ "type": "Feature", "properties": { "OBJECTID": 26, "COD_MPIO": "15001", "X_LONG": -73.423282330600003, "Y_LAT": 5.4723162646799999, "direccion_": "LAS LOMITAS VDA LA HOYA", "DIRECC_NOR": null, "Fecha_actu": "2022-12-01", "VEREDA_V1": "LA HOYA", "VEREDA_V2": "LA HOYA", "Criterio_u": null }, "geometry": { "type": "Point", "coordinates": [ -73.423282330615052, 5.472316264683911 ] } },
{ "type": "Feature", "properties": { "OBJECTID": 27, "COD_MPIO": "15001", "X_LONG": -73.425979980199997, "Y_LAT": 5.4706017503700002, "direccion_": "SAN ANTONIO VDA LA HOYA", "DIRECC_NOR": null, "Fecha_actu": "2022-12-01", "VEREDA_V1": "LA HOYA", "VEREDA_V2": "LA HOYA", "Criterio_u": null }, "geometry": { "type": "Point", "coordinates": [ -73.425979980191869, 5.47060175037052 ] } },
{ "type": "Feature", "properties": { "OBJECTID": 28, "COD_MPIO": "15001", "X_LONG": -73.423376000399998, "Y_LAT": 5.4706043799900002, "direccion_": "BUENAVISTA VDA LA HOYA", "DIRECC_NOR": null, "Fecha_actu": "2022-12-01", "VEREDA_V1": "LA HOYA", "VEREDA_V2": "LA HOYA", "Criterio_u": null }, "geometry": { "type": "Point", "coordinates": [ -73.423376000402072, 5.470604379988174 ] } },
{ "type": "Feature", "properties": { "OBJECTID": 29, "COD_MPIO": "15001", "X_LONG": -73.424840306199997, "Y_LAT": 5.4605292247400001, "direccion_": "SAN LUIS VDA LA HOYA", "DIRECC_NOR": null, "Fecha_actu": "2022-12-01", "VEREDA_V1": "LA HOYA", "VEREDA_V2": "LA HOYA", "Criterio_u": null }, "geometry": { "type": "Point", "coordinates": [ -73.424840306235126, 5.460529224743993 ] } },
{ "type": "Feature", "properties": { "OBJECTID": 30, "COD_MPIO": "15001", "X_LONG": -73.386026458900005, "Y_LAT": 5.4812372515999996, "direccion_": "EL PARAMO LC 2 VDA RUNTA ABAJO", "DIRECC_NOR": null, "Fecha_actu": "2022-12-01", "VEREDA_V1": "RUNTA", "VEREDA_V2": "RUNTA", "Criterio_u": null }, "geometry": { "type": "Point", "coordinates": [ -73.386026458853962, 5.481237251597918 ] } },
{ "type": "Feature", "properties": { "OBJECTID": 31, "COD_MPIO": "15001", "X_LONG": -73.432045980200002, "Y_LAT": 5.4821426296800002, "direccion_": "EL RUNCHICAL VDA LA HOYA", "DIRECC_NOR": null, "Fecha_actu": "2022-12-01", "VEREDA_V1": "LA HOYA", "VEREDA_V2": "LA HOYA", "Criterio_u": null }, "geometry": { "type": "Point", "coordinates": [ -73.432045980237774, 5.482142629678663 ] } },
{ "type": "Feature", "properties": { "OBJECTID": 32, "COD_MPIO": "15001", "X_LONG": -73.425838386400002, "Y_LAT": 5.4812905013600002, "direccion_": "LA PRADERA VDA LA HOYA", "DIRECC_NOR": null, "Fecha_actu": "2022-12-01", "VEREDA_V1": "LA HOYA", "VEREDA_V2": "LA HOYA", "Criterio_u": null }, "geometry": { "type": "Point", "coordinates": [ -73.42583838643236, 5.481290501355602 ] } },
{ "type": "Feature", "properties": { "OBJECTID": 33, "COD_MPIO": "15001", "X_LONG": -73.436629489300003, "Y_LAT": 5.4744799067200001, "direccion_": "LA PLAYITA VDA LA HOYA LT 6", "DIRECC_NOR": null, "Fecha_actu": "2022-12-01", "VEREDA_V1": "LA HOYA", "VEREDA_V2": "LA HOYA", "Criterio_u": null }, "geometry": { "type": "Point", "coordinates": [ -73.436629489259474, 5.474479906722365 ] } },
{ "type": "Feature", "properties": { "OBJECTID": 34, "COD_MPIO": "15001", "X_LONG": -73.434490492199998, "Y_LAT": 5.4736949568600002, "direccion_": "PAN DE AZUCAR VDA LA HOYA", "DIRECC_NOR": null, "Fecha_actu": "2022-12-01", "VEREDA_V1": "LA HOYA", "VEREDA_V2": "LA HOYA", "Criterio_u": null }, "geometry": { "type": "Point", "coordinates": [ -73.434490492242389, 5.473694956856832 ] } },
{ "type": "Feature", "properties": { "OBJECTID": 35, "COD_MPIO": "15001", "X_LONG": -73.437031168800004, "Y_LAT": 5.4748526972900002, "direccion_": "EL MZO VDA LA HOYA LT 5", "DIRECC_NOR": null, "Fecha_actu": "2022-12-01", "VEREDA_V1": "LA HOYA", "VEREDA_V2": "LA HOYA", "Criterio_u": null }, "geometry": { "type": "Point", "coordinates": [ -73.437031168753379, 5.474852697294182 ] } },
{ "type": "Feature", "properties": { "OBJECTID": 36, "COD_MPIO": "15001", "X_LONG": -73.434280240600003, "Y_LAT": 5.4619048493299998, "direccion_": "LAS DALIAS VDA LA HOYA", "DIRECC_NOR": null, "Fecha_actu": "2022-12-01", "VEREDA_V1": "LA HOYA", "VEREDA_V2": "LA HOYA", "Criterio_u": null }, "geometry": { "type": "Point", "coordinates": [ -73.434280240640533, 5.461904849329358 ] } },
{ "type": "Feature", "properties": { "OBJECTID": 37, "COD_MPIO": "15001", "X_LONG": -73.4182228401, "Y_LAT": 5.4620528696399999, "direccion_": "LA PUNTILLA VDA LA LAJITA", "DIRECC_NOR": null, "Fecha_actu": "2022-12-01", "VEREDA_V1": "LA LAJITA", "VEREDA_V2": "LA LAJITA", "Criterio_u": null }, "geometry": { "type": "Point", "coordinates": [ -73.418222840111923, 5.462052869644253 ] } },
{ "type": "Feature", "properties": { "OBJECTID": 38, "COD_MPIO": "15001", "X_LONG": -73.430286640099993, "Y_LAT": 5.4678075801599997, "direccion_": "GARAVATOS VDA LA HOYA", "DIRECC_NOR": null, "Fecha_actu": "2022-12-01", "VEREDA_V1": "LA HOYA", "VEREDA_V2": "LA HOYA", "Criterio_u": null }, "geometry": { "type": "Point", "coordinates": [ -73.430286640116321, 5.46780758015575 ] } },
{ "type": "Feature", "properties": { "OBJECTID": 39, "COD_MPIO": "15001", "X_LONG": -73.436918473800006, "Y_LAT": 5.4676026498399999, "direccion_": "EL BOSQUE VDA LA HOYA", "DIRECC_NOR": null, "Fecha_actu": "2022-12-01", "VEREDA_V1": "LA HOYA", "VEREDA_V2": "LA HOYA", "Criterio_u": null }, "geometry": { "type": "Point", "coordinates": [ -73.436918473808475, 5.46760264984249 ] } },
{ "type": "Feature", "properties": { "OBJECTID": 40, "COD_MPIO": "15001", "X_LONG": -73.433515911300006, "Y_LAT": 5.4716930722799999, "direccion_": "BUENAVISTA O LA ESPERANZA VDA LA H", "DIRECC_NOR": null, "Fecha_actu": "2022-12-01", "VEREDA_V1": "LA HOYA", "VEREDA_V2": "LA HOYA", "Criterio_u": null }, "geometry": { "type": "Point", "coordinates": [ -73.433515911330232, 5.471693072277503 ] } },
{ "type": "Feature", "properties": { "OBJECTID": 41, "COD_MPIO": "15001", "X_LONG": -73.431480019800006, "Y_LAT": 5.4718479697099998, "direccion_": "LA CABANA VDA LA HOYA LT 4", "DIRECC_NOR": null, "Fecha_actu": "2022-12-01", "VEREDA_V1": "LA HOYA", "VEREDA_V2": "LA HOYA", "Criterio_u": null }, "geometry": { "type": "Point", "coordinates": [ -73.431480019787045, 5.471847969708108 ] } },
{ "type": "Feature", "properties": { "OBJECTID": 42, "COD_MPIO": "15001", "X_LONG": -73.393042333599993, "Y_LAT": 5.4824898111599998, "direccion_": "SAN ISIDRO", "DIRECC_NOR": null, "Fecha_actu": "2022-12-01", "VEREDA_V1": "RUNTA", "VEREDA_V2": "RUNTA", "Criterio_u": null }, "geometry": { "type": "Point", "coordinates": [ -73.393042333636743, 5.482489811155915 ] } },
{ "type": "Feature", "properties": { "OBJECTID": 43, "COD_MPIO": "15001", "X_LONG": -73.442386696300005, "Y_LAT": 5.4676752098400003, "direccion_": "EL RUBI VDA LA HOYA", "DIRECC_NOR": null, "Fecha_actu": "2022-12-01", "VEREDA_V1": "LA HOYA", "VEREDA_V2": "LA HOYA", "Criterio_u": null }, "geometry": { "type": "Point", "coordinates": [ -73.442386696288963, 5.467675209843094 ] } },
{ "type": "Feature", "properties": { "OBJECTID": 44, "COD_MPIO": "15001", "X_LONG": -73.438316166000007, "Y_LAT": 5.4728789507000002, "direccion_": "SAN CAYETANO II VDA LA HOYA", "DIRECC_NOR": null, "Fecha_actu": "2022-12-01", "VEREDA_V1": "LA HOYA", "VEREDA_V2": "LA HOYA", "Criterio_u": null }, "geometry": { "type": "Point", "coordinates": [ -73.43831616595827, 5.472878950703034 ] } },
{ "type": "Feature", "properties": { "OBJECTID": 45, "COD_MPIO": "15001", "X_LONG": -73.432399537899997, "Y_LAT": 5.4723346980900001, "direccion_": "EL ALISO VDA LA HOYA", "DIRECC_NOR": null, "Fecha_actu": "2022-12-01", "VEREDA_V1": "LA HOYA", "VEREDA_V2": "LA HOYA", "Criterio_u": null }, "geometry": { "type": "Point", "coordinates": [ -73.432399537908282, 5.472334698087877 ] } },
{ "type": "Feature", "properties": { "OBJECTID": 46, "COD_MPIO": "15001", "X_LONG": -73.4376641251, "Y_LAT": 5.4730388771399996, "direccion_": "SAN CAYETANO I VDA LA HOYA", "DIRECC_NOR": null, "Fecha_actu": "2022-12-01", "VEREDA_V1": "LA HOYA", "VEREDA_V2": "LA HOYA", "Criterio_u": null }, "geometry": { "type": "Point", "coordinates": [ -73.437664125099275, 5.473038877142528 ] } },
{ "type": "Feature", "properties": { "OBJECTID": 47, "COD_MPIO": "15001", "X_LONG": -73.427846710200001, "Y_LAT": 5.4723680296600001, "direccion_": "LOS ARRAYANES VDA LA HOYA", "DIRECC_NOR": null, "Fecha_actu": "2022-12-01", "VEREDA_V1": "LA HOYA", "VEREDA_V2": "LA HOYA", "Criterio_u": null }, "geometry": { "type": "Point", "coordinates": [ -73.427846710157496, 5.472368029660913 ] } },
{ "type": "Feature", "properties": { "OBJECTID": 48, "COD_MPIO": "15001", "X_LONG": -73.428651864200006, "Y_LAT": 5.4734251728299999, "direccion_": "SANTAFE VDA LA HOYA", "DIRECC_NOR": null, "Fecha_actu": "2022-12-01", "VEREDA_V1": "LA HOYA", "VEREDA_V2": "LA HOYA", "Criterio_u": null }, "geometry": { "type": "Point", "coordinates": [ -73.428651864192148, 5.473425172833515 ] } },
{ "type": "Feature", "properties": { "OBJECTID": 49, "COD_MPIO": "15001", "X_LONG": -73.430224598600006, "Y_LAT": 5.4749202183900003, "direccion_": "LOS PINOS VDA LA HOYA", "DIRECC_NOR": null, "Fecha_actu": "2022-12-01", "VEREDA_V1": "LA HOYA", "VEREDA_V2": "LA HOYA", "Criterio_u": null }, "geometry": { "type": "Point", "coordinates": [ -73.430224598586335, 5.474920218393436 ] } },
{ "type": "Feature", "properties": { "OBJECTID": 50, "COD_MPIO": "15001", "X_LONG": -73.427775480299999, "Y_LAT": 5.4710304598899997, "direccion_": "MJ VDA LA HOYA", "DIRECC_NOR": null, "Fecha_actu": "2022-12-01", "VEREDA_V1": "LA HOYA", "VEREDA_V2": "LA HOYA", "Criterio_u": null }, "geometry": { "type": "Point", "coordinates": [ -73.427775480254184, 5.471030459887857 ] } },
{ "type": "Feature", "properties": { "OBJECTID": 51, "COD_MPIO": "15001", "X_LONG": -73.421923230199994, "Y_LAT": 5.4710338098599998, "direccion_": "EL FRAILEJON VDA LA LAJITA", "DIRECC_NOR": null, "Fecha_actu": "2022-12-01", "VEREDA_V1": "LA LAJITA", "VEREDA_V2": "LA LAJITA", "Criterio_u": null }, "geometry": { "type": "Point", "coordinates": [ -73.421923230172922, 5.47103380986249 ] } },
{ "type": "Feature", "properties": { "OBJECTID": 52, "COD_MPIO": "15001", "X_LONG": -73.426617069800002, "Y_LAT": 5.4693253003200004, "direccion_": "GARAVITO VDA LA HOYA", "DIRECC_NOR": null, "Fecha_actu": "2022-12-01", "VEREDA_V1": "LA HOYA", "VEREDA_V2": "LA HOYA", "Criterio_u": null }, "geometry": { "type": "Point", "coordinates": [ -73.426617069821873, 5.469325300322396 ] } },
{ "type": "Feature", "properties": { "OBJECTID": 53, "COD_MPIO": "15001", "X_LONG": -73.432945609900003, "Y_LAT": 5.4693296800200004, "direccion_": "ES PTE DE BOYACA VDA LA H", "DIRECC_NOR": null, "Fecha_actu": "2022-12-01", "VEREDA_V1": "LA HOYA", "VEREDA_V2": "LA HOYA", "Criterio_u": null }, "geometry": { "type": "Point", "coordinates": [ -73.43294560985197, 5.469329680020792 ] } },
{ "type": "Feature", "properties": { "OBJECTID": 54, "COD_MPIO": "15001", "X_LONG": -73.420349119799994, "Y_LAT": 5.4699211803200001, "direccion_": "PALO CAIDO VDA LA LAJITA", "DIRECC_NOR": null, "Fecha_actu": "2022-12-01", "VEREDA_V1": "LA LAJITA", "VEREDA_V2": "LA LAJITA", "Criterio_u": null }, "geometry": { "type": "Point", "coordinates": [ -73.420349119815967, 5.469921180318238 ] } },
{ "type": "Feature", "properties": { "OBJECTID": 55, "COD_MPIO": "15001", "X_LONG": -73.425191057099994, "Y_LAT": 5.4737214418900004, "direccion_": "LC 2 VDA LA HOYA", "DIRECC_NOR": null, "Fecha_actu": "2022-12-01", "VEREDA_V1": "LA HOYA", "VEREDA_V2": "LA HOYA", "Criterio_u": null }, "geometry": { "type": "Point", "coordinates": [ -73.425191057121538, 5.473721441891087 ] } },
{ "type": "Feature", "properties": { "OBJECTID": 56, "COD_MPIO": "15001", "X_LONG": -73.438367719599995, "Y_LAT": 5.4757469498600004, "direccion_": "EL RECUERDO VDA LA HOYA LT 1", "DIRECC_NOR": null, "Fecha_actu": "2022-12-01", "VEREDA_V1": "LA HOYA", "VEREDA_V2": "LA HOYA", "Criterio_u": null }, "geometry": { "type": "Point", "coordinates": [ -73.438367719594567, 5.4757469498619 ] } },
{ "type": "Feature", "properties": { "OBJECTID": 57, "COD_MPIO": "15001", "X_LONG": -73.438118569599993, "Y_LAT": 5.47602907978, "direccion_": "PIE DE CUESTA LC 3 VDA LA HOYA", "DIRECC_NOR": null, "Fecha_actu": "2022-12-01", "VEREDA_V1": "LA HOYA", "VEREDA_V2": "LA HOYA", "Criterio_u": null }, "geometry": { "type": "Point", "coordinates": [ -73.438118569616279, 5.476029079778243 ] } },
{ "type": "Feature", "properties": { "OBJECTID": 58, "COD_MPIO": "15001", "X_LONG": -73.444998635999994, "Y_LAT": 5.4686532630400002, "direccion_": "LAS MERCEDES VDA LA HOYA", "DIRECC_NOR": null, "Fecha_actu": "2022-12-01", "VEREDA_V1": "LA HOYA", "VEREDA_V2": "LA HOYA", "Criterio_u": null }, "geometry": { "type": "Point", "coordinates": [ -73.444998635978209, 5.468653263037709 ] } },
{ "type": "Feature", "properties": { "OBJECTID": 59, "COD_MPIO": "15001", "X_LONG": -73.435440402099999, "Y_LAT": 5.4574228333, "direccion_": "RAQUIRA VDA LA HOYA", "DIRECC_NOR": null, "Fecha_actu": "2022-12-01", "VEREDA_V1": "LA HOYA", "VEREDA_V2": "LA HOYA", "Criterio_u": null }, "geometry": { "type": "Point", "coordinates": [ -73.435440402052848, 5.457422833297187 ] } },
{ "type": "Feature", "properties": { "OBJECTID": 60, "COD_MPIO": "15001", "X_LONG": -73.386109670400003, "Y_LAT": 5.4808358203200003, "direccion_": "EL PARAMO VDA RUNTA", "DIRECC_NOR": null, "Fecha_actu": "2022-12-01", "VEREDA_V1": "RUNTA", "VEREDA_V2": "RUNTA", "Criterio_u": null }, "geometry": { "type": "Point", "coordinates": [ -73.386109670424901, 5.480835820316884 ] } },
{ "type": "Feature", "properties": { "OBJECTID": 61, "COD_MPIO": "15001", "X_LONG": -73.431462852600006, "Y_LAT": 5.4750670686899996, "direccion_": "LOS LAURELES VDA LA HOYA", "DIRECC_NOR": null, "Fecha_actu": "2022-12-01", "VEREDA_V1": "LA HOYA", "VEREDA_V2": "LA HOYA", "Criterio_u": null }, "geometry": { "type": "Point", "coordinates": [ -73.431462852628499, 5.475067068690294 ] } },
{ "type": "Feature", "properties": { "OBJECTID": 62, "COD_MPIO": "15001", "X_LONG": -73.431664007600006, "Y_LAT": 5.47372173777, "direccion_": "LA PRIMAVERA VDA LA HOYA", "DIRECC_NOR": null, "Fecha_actu": "2022-12-01", "VEREDA_V1": "LA HOYA", "VEREDA_V2": "LA HOYA", "Criterio_u": null }, "geometry": { "type": "Point", "coordinates": [ -73.431664007587813, 5.473721737768017 ] } },
{ "type": "Feature", "properties": { "OBJECTID": 63, "COD_MPIO": "15001", "X_LONG": -73.418080417200002, "Y_LAT": 5.4615659362200004, "direccion_": "SAN ISIDRO VDA LA LAJITA", "DIRECC_NOR": null, "Fecha_actu": "2022-12-01", "VEREDA_V1": "LA LAJITA", "VEREDA_V2": "LA LAJITA", "Criterio_u": null }, "geometry": { "type": "Point", "coordinates": [ -73.418080417177464, 5.461565936219017 ] } },
{ "type": "Feature", "properties": { "OBJECTID": 64, "COD_MPIO": "15001", "X_LONG": -73.388161596900005, "Y_LAT": 5.4812655910299997, "direccion_": "DE GASTOS VDA RUNTA", "DIRECC_NOR": null, "Fecha_actu": "2022-12-01", "VEREDA_V1": "RUNTA", "VEREDA_V2": "RUNTA", "Criterio_u": null }, "geometry": { "type": "Point", "coordinates": [ -73.388161596880138, 5.48126559103423 ] } },
{ "type": "Feature", "properties": { "OBJECTID": 65, "COD_MPIO": "15001", "X_LONG": -73.434404880399995, "Y_LAT": 5.4778239701000002, "direccion_": "SAN FRANCISCO VDA LA HOYA", "DIRECC_NOR": null, "Fecha_actu": "2022-12-01", "VEREDA_V1": "LA HOYA", "VEREDA_V2": "LA HOYA", "Criterio_u": null }, "geometry": { "type": "Point", "coordinates": [ -73.434404880380896, 5.477823970100189 ] } },
{ "type": "Feature", "properties": { "OBJECTID": 66, "COD_MPIO": "15001", "X_LONG": -73.431509775699993, "Y_LAT": 5.4686072852000001, "direccion_": "LA ESPERANZA 2 VDA LA HOYA", "DIRECC_NOR": null, "Fecha_actu": "2022-12-01", "VEREDA_V1": "LA HOYA", "VEREDA_V2": "LA HOYA", "Criterio_u": null }, "geometry": { "type": "Point", "coordinates": [ -73.43150977565557, 5.468607285198118 ] } },
{ "type": "Feature", "properties": { "OBJECTID": 67, "COD_MPIO": "15001", "X_LONG": -73.440471932600005, "Y_LAT": 5.4688426143999997, "direccion_": "EL PANTANO VDA LA HOYA", "DIRECC_NOR": null, "Fecha_actu": "2022-12-01", "VEREDA_V1": "LA HOYA", "VEREDA_V2": "LA HOYA", "Criterio_u": null }, "geometry": { "type": "Point", "coordinates": [ -73.440471932633557, 5.468842614395214 ] } },
{ "type": "Feature", "properties": { "OBJECTID": 68, "COD_MPIO": "15001", "X_LONG": -73.432490981900003, "Y_LAT": 5.4711859562700003, "direccion_": "LA FLORIDA VDA LA HOYA", "DIRECC_NOR": null, "Fecha_actu": "2022-12-01", "VEREDA_V1": "LA HOYA", "VEREDA_V2": "LA HOYA", "Criterio_u": null }, "geometry": { "type": "Point", "coordinates": [ -73.432490981873286, 5.471185956266936 ] } },
{ "type": "Feature", "properties": { "OBJECTID": 69, "COD_MPIO": "15001", "X_LONG": -73.444099277099994, "Y_LAT": 5.4720288629400002, "direccion_": "LA CASCAJERA VDA LA HOYA", "DIRECC_NOR": null, "Fecha_actu": "2022-12-01", "VEREDA_V1": "LA HOYA", "VEREDA_V2": "LA HOYA", "Criterio_u": null }, "geometry": { "type": "Point", "coordinates": [ -73.444099277059934, 5.472028862941727 ] } },
{ "type": "Feature", "properties": { "OBJECTID": 70, "COD_MPIO": "15001", "X_LONG": -73.422266989700006, "Y_LAT": 5.4742941400599996, "direccion_": "MONSERRATE VDA LA HOYA", "DIRECC_NOR": null, "Fecha_actu": "2022-12-01", "VEREDA_V1": "LA HOYA", "VEREDA_V2": "LA HOYA", "Criterio_u": null }, "geometry": { "type": "Point", "coordinates": [ -73.422266989729735, 5.474294140062568 ] } },
{ "type": "Feature", "properties": { "OBJECTID": 71, "COD_MPIO": "15001", "X_LONG": -73.429120794100001, "Y_LAT": 5.4696207725799999, "direccion_": "LA PALMA VDA LA HOYA", "DIRECC_NOR": null, "Fecha_actu": "2022-12-01", "VEREDA_V1": "LA HOYA", "VEREDA_V2": "LA HOYA", "Criterio_u": null }, "geometry": { "type": "Point", "coordinates": [ -73.429120794089329, 5.46962077258064 ] } },
{ "type": "Feature", "properties": { "OBJECTID": 72, "COD_MPIO": "15001", "X_LONG": -73.420881834100001, "Y_LAT": 5.4692042623699999, "direccion_": "EL PLACER VDA LA LAJITA", "DIRECC_NOR": null, "Fecha_actu": "2022-12-01", "VEREDA_V1": "LA LAJITA", "VEREDA_V2": "LA LAJITA", "Criterio_u": null }, "geometry": { "type": "Point", "coordinates": [ -73.420881834129318, 5.469204262366873 ] } },
{ "type": "Feature", "properties": { "OBJECTID": 73, "COD_MPIO": "15001", "X_LONG": -73.432727720299994, "Y_LAT": 5.4681939900599996, "direccion_": "SAN LAZARO VDA LA HOYA", "DIRECC_NOR": null, "Fecha_actu": "2022-12-01", "VEREDA_V1": "LA HOYA", "VEREDA_V2": "LA HOYA", "Criterio_u": null }, "geometry": { "type": "Point", "coordinates": [ -73.43272772030798, 5.468193990060627 ] } },
{ "type": "Feature", "properties": { "OBJECTID": 74, "COD_MPIO": "15001", "X_LONG": -73.432195700299999, "Y_LAT": 5.4794727196900004, "direccion_": "SANTA LUCIA 2 VDA LA HOYA", "DIRECC_NOR": null, "Fecha_actu": "2022-12-01", "VEREDA_V1": "LA HOYA", "VEREDA_V2": "LA HOYA", "Criterio_u": null }, "geometry": { "type": "Point", "coordinates": [ -73.432195700271336, 5.479472719690307 ] } },
{ "type": "Feature", "properties": { "OBJECTID": 75, "COD_MPIO": "15001", "X_LONG": -73.438983437700003, "Y_LAT": 5.4726188973400003, "direccion_": "SAN CAYETANO III VDA LA HOYA", "DIRECC_NOR": null, "Fecha_actu": "2022-12-01", "VEREDA_V1": "LA HOYA", "VEREDA_V2": "LA HOYA", "Criterio_u": null }, "geometry": { "type": "Point", "coordinates": [ -73.43898343773543, 5.472618897344262 ] } },
{ "type": "Feature", "properties": { "OBJECTID": 76, "COD_MPIO": "15001", "X_LONG": -73.428829632299994, "Y_LAT": 5.4735843006699998, "direccion_": "EL CARMEN VDA LA HOYA", "DIRECC_NOR": null, "Fecha_actu": "2022-12-01", "VEREDA_V1": "LA HOYA", "VEREDA_V2": "LA HOYA", "Criterio_u": null }, "geometry": { "type": "Point", "coordinates": [ -73.42882963228169, 5.473584300674986 ] } },
{ "type": "Feature", "properties": { "OBJECTID": 77, "COD_MPIO": "15001", "X_LONG": -73.441048284800004, "Y_LAT": 5.4719441531, "direccion_": "EL TRIUNFO VDA LA HOYA", "DIRECC_NOR": null, "Fecha_actu": "2022-12-01", "VEREDA_V1": "LA HOYA", "VEREDA_V2": "LA HOYA", "Criterio_u": null }, "geometry": { "type": "Point", "coordinates": [ -73.44104828475048, 5.471944153100253 ] } },
{ "type": "Feature", "properties": { "OBJECTID": 78, "COD_MPIO": "15001", "X_LONG": -73.442859999600003, "Y_LAT": 5.4697526033, "direccion_": "VILLA VALENTINA VDA LA HOYA", "DIRECC_NOR": null, "Fecha_actu": "2022-12-01", "VEREDA_V1": "LA HOYA", "VEREDA_V2": "LA HOYA", "Criterio_u": null }, "geometry": { "type": "Point", "coordinates": [ -73.442859999589245, 5.469752603300037 ] } },
{ "type": "Feature", "properties": { "OBJECTID": 79, "COD_MPIO": "15001", "X_LONG": -73.425059360399999, "Y_LAT": 5.4738412198999997, "direccion_": "VIA CARRETEABLE VDA LA HOYA", "DIRECC_NOR": null, "Fecha_actu": "2022-12-01", "VEREDA_V1": "LA HOYA", "VEREDA_V2": "LA HOYA", "Criterio_u": null }, "geometry": { "type": "Point", "coordinates": [ -73.425059360401121, 5.473841219896428 ] } },
{ "type": "Feature", "properties": { "OBJECTID": 80, "COD_MPIO": "15001", "X_LONG": -73.419591340300002, "Y_LAT": 5.4691195804000001, "direccion_": "EL FRESNO VDA LA LAJITA", "DIRECC_NOR": null, "Fecha_actu": "2022-12-01", "VEREDA_V1": "LA LAJITA", "VEREDA_V2": "LA LAJITA", "Criterio_u": null }, "geometry": { "type": "Point", "coordinates": [ -73.419591340268084, 5.469119580404367 ] } },
{ "type": "Feature", "properties": { "OBJECTID": 81, "COD_MPIO": "15001", "X_LONG": -73.433385449400006, "Y_LAT": 5.4705363993400002, "direccion_": "LA ES VDA LA HOYA", "DIRECC_NOR": null, "Fecha_actu": "2022-12-01", "VEREDA_V1": "LA HOYA", "VEREDA_V2": "LA HOYA", "Criterio_u": null }, "geometry": { "type": "Point", "coordinates": [ -73.433385449378932, 5.470536399335401 ] } },
{ "type": "Feature", "properties": { "OBJECTID": 82, "COD_MPIO": "15001", "X_LONG": -73.432076184899998, "Y_LAT": 5.4723847237800003, "direccion_": "VENECIA VDA LA HOYA", "DIRECC_NOR": null, "Fecha_actu": "2022-12-01", "VEREDA_V1": "LA HOYA", "VEREDA_V2": "LA HOYA", "Criterio_u": null }, "geometry": { "type": "Point", "coordinates": [ -73.432076184867981, 5.472384723776031 ] } },
{ "type": "Feature", "properties": { "OBJECTID": 83, "COD_MPIO": "15001", "X_LONG": -73.430868383700002, "Y_LAT": 5.4702399333300002, "direccion_": "EL ROBLE VDA LA HOYA", "DIRECC_NOR": null, "Fecha_actu": "2022-12-01", "VEREDA_V1": "LA HOYA", "VEREDA_V2": "LA HOYA", "Criterio_u": null }, "geometry": { "type": "Point", "coordinates": [ -73.430868383668951, 5.470239933326297 ] } },
{ "type": "Feature", "properties": { "OBJECTID": 84, "COD_MPIO": "15001", "X_LONG": -73.4276809399, "Y_LAT": 5.4775060696500004, "direccion_": "EL TRIANGULO VDA LA HOYA", "DIRECC_NOR": null, "Fecha_actu": "2022-12-01", "VEREDA_V1": "LA HOYA", "VEREDA_V2": "LA HOYA", "Criterio_u": null }, "geometry": { "type": "Point", "coordinates": [ -73.427680939923391, 5.477506069649451 ] } },
{ "type": "Feature", "properties": { "OBJECTID": 85, "COD_MPIO": "15001", "X_LONG": -73.444626461400006, "Y_LAT": 5.4713612359299999, "direccion_": "LA DORADA VDA LA HOYA", "DIRECC_NOR": null, "Fecha_actu": "2022-12-01", "VEREDA_V1": "LA HOYA", "VEREDA_V2": "LA HOYA", "Criterio_u": null }, "geometry": { "type": "Point", "coordinates": [ -73.444626461441999, 5.471361235932363 ] } },
{ "type": "Feature", "properties": { "OBJECTID": 86, "COD_MPIO": "15001", "X_LONG": -73.430786814300006, "Y_LAT": 5.4781764440899998, "direccion_": "SANTA HELENA VDA LA HOYA", "DIRECC_NOR": null, "Fecha_actu": "2022-12-01", "VEREDA_V1": "LA HOYA", "VEREDA_V2": "LA HOYA", "Criterio_u": null }, "geometry": { "type": "Point", "coordinates": [ -73.430786814260046, 5.478176444087694 ] } },
{ "type": "Feature", "properties": { "OBJECTID": 87, "COD_MPIO": "15001", "X_LONG": -73.423960940100002, "Y_LAT": 5.4554171400899998, "direccion_": "LT 11", "DIRECC_NOR": null, "Fecha_actu": "2022-12-01", "VEREDA_V1": "LA HOYA", "VEREDA_V2": "LA HOYA", "Criterio_u": null }, "geometry": { "type": "Point", "coordinates": [ -73.423960940145207, 5.455417140088969 ] } },
{ "type": "Feature", "properties": { "OBJECTID": 88, "COD_MPIO": "15001", "X_LONG": -73.384793820200002, "Y_LAT": 5.4805435199700003, "direccion_": "LC 3 VDA RUNTA", "DIRECC_NOR": null, "Fecha_actu": "2022-12-01", "VEREDA_V1": "RUNTA", "VEREDA_V2": "RUNTA", "Criterio_u": null }, "geometry": { "type": "Point", "coordinates": [ -73.384793820178629, 5.480543519967512 ] } },
{ "type": "Feature", "properties": { "OBJECTID": 89, "COD_MPIO": "15001", "X_LONG": -73.427940954600004, "Y_LAT": 5.4538360150200003, "direccion_": "CA DE TEJA VDA LA HOYA", "DIRECC_NOR": null, "Fecha_actu": "2022-12-01", "VEREDA_V1": "LA HOYA", "VEREDA_V2": "LA HOYA", "Criterio_u": null }, "geometry": { "type": "Point", "coordinates": [ -73.427940954611302, 5.453836015020102 ] } },
{ "type": "Feature", "properties": { "OBJECTID": 90, "COD_MPIO": "15001", "X_LONG": -73.430408390300002, "Y_LAT": 5.4762577297100004, "direccion_": "CA LA HOYA", "DIRECC_NOR": null, "Fecha_actu": "2022-12-01", "VEREDA_V1": "LA HOYA", "VEREDA_V2": "LA HOYA", "Criterio_u": null }, "geometry": { "type": "Point", "coordinates": [ -73.43040839033489, 5.476257729710483 ] } },
{ "type": "Feature", "properties": { "OBJECTID": 91, "COD_MPIO": "15001", "X_LONG": -73.411813059799996, "Y_LAT": 5.4542073900599997, "direccion_": "LA CABANA 3 VDA LA LAJITA", "DIRECC_NOR": null, "Fecha_actu": "2022-12-01", "VEREDA_V1": "LA LAJITA", "VEREDA_V2": "LA LAJITA", "Criterio_u": null }, "geometry": { "type": "Point", "coordinates": [ -73.411813059824794, 5.454207390059025 ] } },
{ "type": "Feature", "properties": { "OBJECTID": 92, "COD_MPIO": "15001", "X_LONG": -73.423779230299999, "Y_LAT": 5.4547898701599999, "direccion_": "LC 7 VDA LA HOYA", "DIRECC_NOR": null, "Fecha_actu": "2022-12-01", "VEREDA_V1": "LA HOYA", "VEREDA_V2": "LA HOYA", "Criterio_u": null }, "geometry": { "type": "Point", "coordinates": [ -73.42377923032717, 5.454789870156446 ] } },
{ "type": "Feature", "properties": { "OBJECTID": 93, "COD_MPIO": "15001", "X_LONG": -73.412313786200002, "Y_LAT": 5.4548675580900001, "direccion_": "EL PORVENIR VDA LA LAJITA", "DIRECC_NOR": null, "Fecha_actu": "2022-12-01", "VEREDA_V1": "LA LAJITA", "VEREDA_V2": "LA LAJITA", "Criterio_u": null }, "geometry": { "type": "Point", "coordinates": [ -73.412313786152254, 5.454867558091394 ] } },
{ "type": "Feature", "properties": { "OBJECTID": 94, "COD_MPIO": "15001", "X_LONG": -73.424537679899998, "Y_LAT": 5.4547912101499998, "direccion_": "LT 8", "DIRECC_NOR": null, "Fecha_actu": "2022-12-01", "VEREDA_V1": "LA HOYA", "VEREDA_V2": "LA HOYA", "Criterio_u": null }, "geometry": { "type": "Point", "coordinates": [ -73.424537679870014, 5.454791210146254 ] } },
{ "type": "Feature", "properties": { "OBJECTID": 95, "COD_MPIO": "15001", "X_LONG": -73.423537050099995, "Y_LAT": 5.4530507396000001, "direccion_": "B VDA LA HOYA", "DIRECC_NOR": null, "Fecha_actu": "2022-12-01", "VEREDA_V1": "LA HOYA", "VEREDA_V2": "LA HOYA", "Criterio_u": null }, "geometry": { "type": "Point", "coordinates": [ -73.423537050094751, 5.453050739599973 ] } },
{ "type": "Feature", "properties": { "OBJECTID": 96, "COD_MPIO": "15001", "X_LONG": -73.412102639699995, "Y_LAT": 5.4527837200900002, "direccion_": "EL SALTO VDA LA LAJITA", "DIRECC_NOR": null, "Fecha_actu": "2022-12-01", "VEREDA_V1": "LA LAJITA", "VEREDA_V2": "LA LAJITA", "Criterio_u": null }, "geometry": { "type": "Point", "coordinates": [ -73.412102639724992, 5.452783720092668 ] } },
{ "type": "Feature", "properties": { "OBJECTID": 97, "COD_MPIO": "15001", "X_LONG": -73.429451012599998, "Y_LAT": 5.4536372720399999, "direccion_": "PTE DE BOYACA VDA LA HOYA", "DIRECC_NOR": null, "Fecha_actu": "2022-12-01", "VEREDA_V1": "LA HOYA", "VEREDA_V2": "LA HOYA", "Criterio_u": null }, "geometry": { "type": "Point", "coordinates": [ -73.429451012554125, 5.453637272042499 ] } },
{ "type": "Feature", "properties": { "OBJECTID": 98, "COD_MPIO": "15001", "X_LONG": -73.4306493502, "Y_LAT": 5.47645069994, "direccion_": "LC 3 VDA LA HOYA", "DIRECC_NOR": null, "Fecha_actu": "2022-12-01", "VEREDA_V1": "LA HOYA", "VEREDA_V2": "LA HOYA", "Criterio_u": null }, "geometry": { "type": "Point", "coordinates": [ -73.430649350187309, 5.476450699939903 ] } },
{ "type": "Feature", "properties": { "OBJECTID": 99, "COD_MPIO": "15001", "X_LONG": -73.392290700100006, "Y_LAT": 5.4801386397899998, "direccion_": "LOS ROMERITOS VDA RUNTA", "DIRECC_NOR": null, "Fecha_actu": "2022-12-01", "VEREDA_V1": "RUNTA", "VEREDA_V2": "RUNTA", "Criterio_u": null }, "geometry": { "type": "Point", "coordinates": [ -73.392290700055696, 5.480138639786446 ] } },
{ "type": "Feature", "properties": { "OBJECTID": 100, "COD_MPIO": "15001", "X_LONG": -73.415396458000004, "Y_LAT": 5.4537327575600001, "direccion_": "LA PLAYA VDA LA LAJITA", "DIRECC_NOR": null, "Fecha_actu": "2022-12-01", "VEREDA_V1": "LA LAJITA", "VEREDA_V2": "LA LAJITA", "Criterio_u": null }, "geometry": { "type": "Point", "coordinates": [ -73.415396457980137, 5.453732757560772 ] } },
{ "type": "Feature", "properties": { "OBJECTID": 101, "COD_MPIO": "15001", "X_LONG": -73.421036468099999, "Y_LAT": 5.4553629991000001, "direccion_": "BTS 10 DO 13 FRANJA DE TERREN", "DIRECC_NOR": null, "Fecha_actu": "2022-12-01", "VEREDA_V1": "LA LAJITA", "VEREDA_V2": "LA LAJITA", "Criterio_u": null }, "geometry": { "type": "Point", "coordinates": [ -73.421036468058503, 5.455362999103158 ] } },
{ "type": "Feature", "properties": { "OBJECTID": 102, "COD_MPIO": "15001", "X_LONG": -73.423537849599995, "Y_LAT": 5.4563372697499997, "direccion_": "LETICIA LA MANA VDA LA LAJITA", "DIRECC_NOR": null, "Fecha_actu": "2022-12-01", "VEREDA_V1": "LA LAJITA", "VEREDA_V2": "LA LAJITA", "Criterio_u": null }, "geometry": { "type": "Point", "coordinates": [ -73.423537849592037, 5.45633726974927 ] } },
{ "type": "Feature", "properties": { "OBJECTID": 103, "COD_MPIO": "15001", "X_LONG": -73.4263072902, "Y_LAT": 5.4543507500899997, "direccion_": "LT 2A", "DIRECC_NOR": null, "Fecha_actu": "2022-12-01", "VEREDA_V1": "LA HOYA", "VEREDA_V2": "LA HOYA", "Criterio_u": null }, "geometry": { "type": "Point", "coordinates": [ -73.426307290249213, 5.454350750087087 ] } },
{ "type": "Feature", "properties": { "OBJECTID": 104, "COD_MPIO": "15001", "X_LONG": -73.391580550399993, "Y_LAT": 5.47844964014, "direccion_": "XXX VDA RUNTA", "DIRECC_NOR": null, "Fecha_actu": "2022-12-01", "VEREDA_V1": "RUNTA", "VEREDA_V2": "RUNTA", "Criterio_u": null }, "geometry": { "type": "Point", "coordinates": [ -73.391580550402068, 5.47844964013882 ] } },
{ "type": "Feature", "properties": { "OBJECTID": 105, "COD_MPIO": "15001", "X_LONG": -73.418967321400004, "Y_LAT": 5.4570758937399999, "direccion_": "MJ VDA LA LAJITA", "DIRECC_NOR": null, "Fecha_actu": "2022-12-01", "VEREDA_V1": "LA LAJITA", "VEREDA_V2": "LA LAJITA", "Criterio_u": null }, "geometry": { "type": "Point", "coordinates": [ -73.418967321384741, 5.457075893737567 ] } },
{ "type": "Feature", "properties": { "OBJECTID": 106, "COD_MPIO": "15001", "X_LONG": -73.431139380900007, "Y_LAT": 5.47739230001, "direccion_": "DE TERRENO VDA LA HOYA", "DIRECC_NOR": null, "Fecha_actu": "2022-12-01", "VEREDA_V1": "LA HOYA", "VEREDA_V2": "LA HOYA", "Criterio_u": null }, "geometry": { "type": "Point", "coordinates": [ -73.43113938087771, 5.477392300014685 ] } },
{ "type": "Feature", "properties": { "OBJECTID": 107, "COD_MPIO": "15001", "X_LONG": -73.428921589799998, "Y_LAT": 5.4765074804399996, "direccion_": "LA PLAZUELA VDA LA HOYA", "DIRECC_NOR": null, "Fecha_actu": "2022-12-01", "VEREDA_V1": "LA HOYA", "VEREDA_V2": "LA HOYA", "Criterio_u": null }, "geometry": { "type": "Point", "coordinates": [ -73.428921589759511, 5.476507480435941 ] } },
{ "type": "Feature", "properties": { "OBJECTID": 108, "COD_MPIO": "15001", "X_LONG": -73.433918063899995, "Y_LAT": 5.4794104056700004, "direccion_": "EL CASTILLO VDA LA HOYA", "DIRECC_NOR": null, "Fecha_actu": "2022-12-01", "VEREDA_V1": "LA HOYA", "VEREDA_V2": "LA HOYA", "Criterio_u": null }, "geometry": { "type": "Point", "coordinates": [ -73.433918063867509, 5.47941040566576 ] } },
{ "type": "Feature", "properties": { "OBJECTID": 109, "COD_MPIO": "15001", "X_LONG": -73.4264049099, "Y_LAT": 5.4785461895600003, "direccion_": "APOSENTOS VDA LA HOYA", "DIRECC_NOR": null, "Fecha_actu": "2022-12-01", "VEREDA_V1": "LA HOYA", "VEREDA_V2": "LA HOYA", "Criterio_u": null }, "geometry": { "type": "Point", "coordinates": [ -73.426404909858661, 5.478546189555061 ] } },
{ "type": "Feature", "properties": { "OBJECTID": 110, "COD_MPIO": "15001", "X_LONG": -73.4114086302, "Y_LAT": 5.4541644195499996, "direccion_": "TRES ESQUINAS VDA LA LAJITA", "DIRECC_NOR": null, "Fecha_actu": "2022-12-01", "VEREDA_V1": "LA LAJITA", "VEREDA_V2": "LA LAJITA", "Criterio_u": null }, "geometry": { "type": "Point", "coordinates": [ -73.411408630204107, 5.454164419552342 ] } },
{ "type": "Feature", "properties": { "OBJECTID": 111, "COD_MPIO": "15001", "X_LONG": -73.4372470096, "Y_LAT": 5.45643849024, "direccion_": "EL TOBO VDA LA HOYA", "DIRECC_NOR": null, "Fecha_actu": "2022-12-01", "VEREDA_V1": "LA HOYA", "VEREDA_V2": "LA HOYA", "Criterio_u": null }, "geometry": { "type": "Point", "coordinates": [ -73.437247009641737, 5.456438490244182 ] } },
{ "type": "Feature", "properties": { "OBJECTID": 112, "COD_MPIO": "15001", "X_LONG": -73.428570665300001, "Y_LAT": 5.4791409148200003, "direccion_": "LA PROVIDENCIA VDA LA HOYA", "DIRECC_NOR": null, "Fecha_actu": "2022-12-01", "VEREDA_V1": "LA HOYA", "VEREDA_V2": "LA HOYA", "Criterio_u": null }, "geometry": { "type": "Point", "coordinates": [ -73.428570665303937, 5.479140914821414 ] } },
{ "type": "Feature", "properties": { "OBJECTID": 113, "COD_MPIO": "15001", "X_LONG": -73.436212479899993, "Y_LAT": 5.47793813993, "direccion_": "EL MIRADOR VDA LA HOYA", "DIRECC_NOR": null, "Fecha_actu": "2022-12-01", "VEREDA_V1": "LA HOYA", "VEREDA_V2": "LA HOYA", "Criterio_u": null }, "geometry": { "type": "Point", "coordinates": [ -73.436212479921949, 5.477938139933258 ] } },
{ "type": "Feature", "properties": { "OBJECTID": 114, "COD_MPIO": "15001", "X_LONG": -73.384804370099999, "Y_LAT": 5.4808497795899997, "direccion_": "EL PARAMO LC 4 VDA RUNTA ABAJO", "DIRECC_NOR": null, "Fecha_actu": "2022-12-01", "VEREDA_V1": "RUNTA", "VEREDA_V2": "RUNTA", "Criterio_u": null }, "geometry": { "type": "Point", "coordinates": [ -73.384804370125551, 5.480849779593711 ] } },
{ "type": "Feature", "properties": { "OBJECTID": 115, "COD_MPIO": "15001", "X_LONG": -73.426825660399999, "Y_LAT": 5.45159984985, "direccion_": "LC 4 VDA LA HOYA", "DIRECC_NOR": null, "Fecha_actu": "2022-12-01", "VEREDA_V1": "LA HOYA", "VEREDA_V2": "LA HOYA", "Criterio_u": null }, "geometry": { "type": "Point", "coordinates": [ -73.426825660375869, 5.45159984985321 ] } },
{ "type": "Feature", "properties": { "OBJECTID": 116, "COD_MPIO": "15001", "X_LONG": -73.435605860199999, "Y_LAT": 5.4783427898900001, "direccion_": "LA PENITA VDA LA HOYA", "DIRECC_NOR": null, "Fecha_actu": "2022-12-01", "VEREDA_V1": "LA HOYA", "VEREDA_V2": "LA HOYA", "Criterio_u": null }, "geometry": { "type": "Point", "coordinates": [ -73.435605860222211, 5.478342789887904 ] } },
{ "type": "Feature", "properties": { "OBJECTID": 117, "COD_MPIO": "15001", "X_LONG": -73.385425920399996, "Y_LAT": 5.4806158704300003, "direccion_": "LC 1 VDA RUNTA", "DIRECC_NOR": null, "Fecha_actu": "2022-12-01", "VEREDA_V1": "RUNTA", "VEREDA_V2": "RUNTA", "Criterio_u": null }, "geometry": { "type": "Point", "coordinates": [ -73.385425920369869, 5.480615870426107 ] } },
{ "type": "Feature", "properties": { "OBJECTID": 118, "COD_MPIO": "15001", "X_LONG": -73.416672320800004, "Y_LAT": 5.4532637736999998, "direccion_": "EL DIAMANTE VDA LA LAJITA", "DIRECC_NOR": null, "Fecha_actu": "2022-12-01", "VEREDA_V1": "LA LAJITA", "VEREDA_V2": "LA LAJITA", "Criterio_u": null }, "geometry": { "type": "Point", "coordinates": [ -73.416672320770942, 5.453263773704236 ] } },
{ "type": "Feature", "properties": { "OBJECTID": 119, "COD_MPIO": "15001", "X_LONG": -73.427055059400004, "Y_LAT": 5.4543803476699999, "direccion_": "A VDA LA HOYA LT 1", "DIRECC_NOR": null, "Fecha_actu": "2022-12-01", "VEREDA_V1": "LA HOYA", "VEREDA_V2": "LA HOYA", "Criterio_u": null }, "geometry": { "type": "Point", "coordinates": [ -73.427055059443376, 5.454380347674942 ] } },
{ "type": "Feature", "properties": { "OBJECTID": 120, "COD_MPIO": "15001", "X_LONG": -73.415941154899997, "Y_LAT": 5.4536481817200002, "direccion_": "EL TESORITO VDA LA LAJITA", "DIRECC_NOR": null, "Fecha_actu": "2022-12-01", "VEREDA_V1": "LA LAJITA", "VEREDA_V2": "LA LAJITA", "Criterio_u": null }, "geometry": { "type": "Point", "coordinates": [ -73.415941154860377, 5.453648181718279 ] } },
{ "type": "Feature", "properties": { "OBJECTID": 121, "COD_MPIO": "15001", "X_LONG": -73.4074585802, "Y_LAT": 5.4516850462299997, "direccion_": "LA PIEDRA DE LA MESA VDA BARON", "DIRECC_NOR": null, "Fecha_actu": "2022-12-01", "VEREDA_V1": "LA LAJITA", "VEREDA_V2": "BARON GALLERO", "Criterio_u": null }, "geometry": { "type": "Point", "coordinates": [ -73.407458580249227, 5.451685046227965 ] } },
{ "type": "Feature", "properties": { "OBJECTID": 122, "COD_MPIO": "15001", "X_LONG": -73.41297652, "Y_LAT": 5.4525284700099999, "direccion_": "POZO AZUL VDA LA LAJITA", "DIRECC_NOR": null, "Fecha_actu": "2022-12-01", "VEREDA_V1": "LA LAJITA", "VEREDA_V2": "LA LAJITA", "Criterio_u": null }, "geometry": { "type": "Point", "coordinates": [ -73.412976519950405, 5.452528470012908 ] } },
{ "type": "Feature", "properties": { "OBJECTID": 123, "COD_MPIO": "15001", "X_LONG": -73.425883470299993, "Y_LAT": 5.4540313396700002, "direccion_": "PD BTS 10 D003B VDA LA HOYA", "DIRECC_NOR": null, "Fecha_actu": "2022-12-01", "VEREDA_V1": "LA HOYA", "VEREDA_V2": "LA HOYA", "Criterio_u": null }, "geometry": { "type": "Point", "coordinates": [ -73.425883470345866, 5.454031339674657 ] } },
{ "type": "Feature", "properties": { "OBJECTID": 124, "COD_MPIO": "15001", "X_LONG": -73.434097750199996, "Y_LAT": 5.4548636298500002, "direccion_": "EL TUNAL VDA LA HOYA", "DIRECC_NOR": null, "Fecha_actu": "2022-12-01", "VEREDA_V1": "LA HOYA", "VEREDA_V2": "LA HOYA", "Criterio_u": null }, "geometry": { "type": "Point", "coordinates": [ -73.434097750210981, 5.454863629852696 ] } },
{ "type": "Feature", "properties": { "OBJECTID": 125, "COD_MPIO": "15001", "X_LONG": -73.429598853900004, "Y_LAT": 5.47823924375, "direccion_": "EL DIAMANTE VDA LA HOYA", "DIRECC_NOR": null, "Fecha_actu": "2022-12-01", "VEREDA_V1": "LA HOYA", "VEREDA_V2": "LA HOYA", "Criterio_u": null }, "geometry": { "type": "Point", "coordinates": [ -73.42959885390394, 5.478239243746145 ] } },
{ "type": "Feature", "properties": { "OBJECTID": 126, "COD_MPIO": "15001", "X_LONG": -73.381408510300005, "Y_LAT": 5.4807235498500004, "direccion_": "LOS ENCENILLOS VDA RUNTA LO 8", "DIRECC_NOR": null, "Fecha_actu": "2022-12-01", "VEREDA_V1": "RUNTA", "VEREDA_V2": "RUNTA", "Criterio_u": null }, "geometry": { "type": "Point", "coordinates": [ -73.381408510294477, 5.480723549851973 ] } },
{ "type": "Feature", "properties": { "OBJECTID": 127, "COD_MPIO": "15001", "X_LONG": -73.379580120200004, "Y_LAT": 5.4814074402, "direccion_": "LOS ENCENILLOS VDA RUNTA LO 7", "DIRECC_NOR": null, "Fecha_actu": "2022-12-01", "VEREDA_V1": "RUNTA", "VEREDA_V2": "RUNTA", "Criterio_u": null }, "geometry": { "type": "Point", "coordinates": [ -73.379580120226308, 5.481407440201281 ] } },
{ "type": "Feature", "properties": { "OBJECTID": 128, "COD_MPIO": "15001", "X_LONG": -73.385513545799995, "Y_LAT": 5.4810359167699998, "direccion_": "EL PARAMO VDA RUNTA LT 3", "DIRECC_NOR": null, "Fecha_actu": "2022-12-01", "VEREDA_V1": "RUNTA", "VEREDA_V2": "RUNTA", "Criterio_u": null }, "geometry": { "type": "Point", "coordinates": [ -73.385513545813467, 5.481035916774204 ] } },
{ "type": "Feature", "properties": { "OBJECTID": 129, "COD_MPIO": "15001", "X_LONG": -73.411992069899995, "Y_LAT": 5.4553510902799998, "direccion_": "EL CEREZO VDA LA LAJITA", "DIRECC_NOR": null, "Fecha_actu": "2022-12-01", "VEREDA_V1": "LA LAJITA", "VEREDA_V2": "LA LAJITA", "Criterio_u": null }, "geometry": { "type": "Point", "coordinates": [ -73.411992069878067, 5.455351090280658 ] } },
{ "type": "Feature", "properties": { "OBJECTID": 130, "COD_MPIO": "15001", "X_LONG": -73.417891744800002, "Y_LAT": 5.4524870229599998, "direccion_": "MENGLEDIA VDA LA LAJITA", "DIRECC_NOR": null, "Fecha_actu": "2022-12-01", "VEREDA_V1": "LA LAJITA", "VEREDA_V2": "LA LAJITA", "Criterio_u": null }, "geometry": { "type": "Point", "coordinates": [ -73.417891744808117, 5.452487022957769 ] } },
{ "type": "Feature", "properties": { "OBJECTID": 131, "COD_MPIO": "15001", "X_LONG": -73.436352409899996, "Y_LAT": 5.4776166799699997, "direccion_": "LA RUEDA VOLANTE VDA LA HOYA", "DIRECC_NOR": null, "Fecha_actu": "2022-12-01", "VEREDA_V1": "LA HOYA", "VEREDA_V2": "LA HOYA", "Criterio_u": null }, "geometry": { "type": "Point", "coordinates": [ -73.436352409935751, 5.477616679965877 ] } },
{ "type": "Feature", "properties": { "OBJECTID": 132, "COD_MPIO": "15001", "X_LONG": -73.431214629899998, "Y_LAT": 5.4767965504199996, "direccion_": "BRISAS MOMPOSINAS VDA LA HOYA", "DIRECC_NOR": null, "Fecha_actu": "2022-12-01", "VEREDA_V1": "LA HOYA", "VEREDA_V2": "LA HOYA", "Criterio_u": null }, "geometry": { "type": "Point", "coordinates": [ -73.43121462985124, 5.476796550420488 ] } },
{ "type": "Feature", "properties": { "OBJECTID": 133, "COD_MPIO": "15001", "X_LONG": -73.438261589700005, "Y_LAT": 5.4759071703800002, "direccion_": "PENA LISA VDA LA HOYA LT 2", "DIRECC_NOR": null, "Fecha_actu": "2022-12-01", "VEREDA_V1": "LA HOYA", "VEREDA_V2": "LA HOYA", "Criterio_u": null }, "geometry": { "type": "Point", "coordinates": [ -73.438261589700573, 5.475907170379685 ] } },
{ "type": "Feature", "properties": { "OBJECTID": 134, "COD_MPIO": "15001", "X_LONG": -73.419427299399999, "Y_LAT": 5.4564192510499998, "direccion_": "SAN JOAQUIN VDA LA LAJITA", "DIRECC_NOR": null, "Fecha_actu": "2022-12-01", "VEREDA_V1": "LA LAJITA", "VEREDA_V2": "LA LAJITA", "Criterio_u": null }, "geometry": { "type": "Point", "coordinates": [ -73.419427299430311, 5.456419251047635 ] } },
{ "type": "Feature", "properties": { "OBJECTID": 135, "COD_MPIO": "15001", "X_LONG": -73.424536792200001, "Y_LAT": 5.4531432339699997, "direccion_": "EL PENON VDA LA HOYA", "DIRECC_NOR": null, "Fecha_actu": "2022-12-01", "VEREDA_V1": "LA HOYA", "VEREDA_V2": "LA HOYA", "Criterio_u": null }, "geometry": { "type": "Point", "coordinates": [ -73.42453679223911, 5.453143233973094 ] } },
{ "type": "Feature", "properties": { "OBJECTID": 136, "COD_MPIO": "15001", "X_LONG": -73.427490219800006, "Y_LAT": 5.4508698998299998, "direccion_": "LC 5 VDA LA HOYA", "DIRECC_NOR": null, "Fecha_actu": "2022-12-01", "VEREDA_V1": "LA HOYA", "VEREDA_V2": "LA HOYA", "Criterio_u": null }, "geometry": { "type": "Point", "coordinates": [ -73.427490219797789, 5.450869899826046 ] } },
{ "type": "Feature", "properties": { "OBJECTID": 137, "COD_MPIO": "15001", "X_LONG": -73.428332048200005, "Y_LAT": 5.4801528292899997, "direccion_": "SAN JUANITO VDA LA HOYA", "DIRECC_NOR": null, "Fecha_actu": "2022-12-01", "VEREDA_V1": "LA HOYA", "VEREDA_V2": "LA HOYA", "Criterio_u": null }, "geometry": { "type": "Point", "coordinates": [ -73.428332048185439, 5.480152829289693 ] } },
{ "type": "Feature", "properties": { "OBJECTID": 138, "COD_MPIO": "15001", "X_LONG": -73.426167579700007, "Y_LAT": 5.4536396003899998, "direccion_": "LC VDA LA HOYA", "DIRECC_NOR": null, "Fecha_actu": "2022-12-01", "VEREDA_V1": "LA HOYA", "VEREDA_V2": "LA HOYA", "Criterio_u": null }, "geometry": { "type": "Point", "coordinates": [ -73.42616757967005, 5.453639600387305 ] } },
{ "type": "Feature", "properties": { "OBJECTID": 139, "COD_MPIO": "15001", "X_LONG": -73.423057893099994, "Y_LAT": 5.4562070443200001, "direccion_": "LA PLANADA VDA LA LAJITA", "DIRECC_NOR": null, "Fecha_actu": "2022-12-01", "VEREDA_V1": "LA LAJITA", "VEREDA_V2": "LA LAJITA", "Criterio_u": null }, "geometry": { "type": "Point", "coordinates": [ -73.423057893107227, 5.456207044319683 ] } },
{ "type": "Feature", "properties": { "OBJECTID": 140, "COD_MPIO": "15001", "X_LONG": -73.384308899399997, "Y_LAT": 5.4809734201899998, "direccion_": "EL PARAMO LC 1 VDA RUNTA ABAJO", "DIRECC_NOR": null, "Fecha_actu": "2022-12-01", "VEREDA_V1": "RUNTA", "VEREDA_V2": "RUNTA", "Criterio_u": null }, "geometry": { "type": "Point", "coordinates": [ -73.384308899436121, 5.48097342018724 ] } },
{ "type": "Feature", "properties": { "OBJECTID": 141, "COD_MPIO": "15001", "X_LONG": -73.386568759, "Y_LAT": 5.4813356194400003, "direccion_": "EL PARAMO VDA RUNTA LT 5", "DIRECC_NOR": null, "Fecha_actu": "2022-12-01", "VEREDA_V1": "RUNTA", "VEREDA_V2": "RUNTA", "Criterio_u": null }, "geometry": { "type": "Point", "coordinates": [ -73.386568759040983, 5.481335619443314 ] } },
{ "type": "Feature", "properties": { "OBJECTID": 142, "COD_MPIO": "15001", "X_LONG": -73.426879516300005, "Y_LAT": 5.4811287771700004, "direccion_": "BETHANIA VDA LA HOYA", "DIRECC_NOR": null, "Fecha_actu": "2022-12-01", "VEREDA_V1": "LA HOYA", "VEREDA_V2": "LA HOYA", "Criterio_u": null }, "geometry": { "type": "Point", "coordinates": [ -73.426879516276642, 5.481128777171364 ] } },
{ "type": "Feature", "properties": { "OBJECTID": 143, "COD_MPIO": "15001", "X_LONG": -73.418979961399998, "Y_LAT": 5.4526401379299996, "direccion_": "TINJACA VDA LA LAJITA", "DIRECC_NOR": null, "Fecha_actu": "2022-12-01", "VEREDA_V1": "LA LAJITA", "VEREDA_V2": "LA LAJITA", "Criterio_u": null }, "geometry": { "type": "Point", "coordinates": [ -73.418979961356115, 5.452640137932065 ] } },
{ "type": "Feature", "properties": { "OBJECTID": 144, "COD_MPIO": "15001", "X_LONG": -73.417203758900001, "Y_LAT": 5.4531019766700002, "direccion_": "EL RECUERDO VDA LA LAJITA", "DIRECC_NOR": null, "Fecha_actu": "2022-12-01", "VEREDA_V1": "LA LAJITA", "VEREDA_V2": "LA LAJITA", "Criterio_u": null }, "geometry": { "type": "Point", "coordinates": [ -73.4172037589463, 5.45310197667493 ] } },
{ "type": "Feature", "properties": { "OBJECTID": 145, "COD_MPIO": "15001", "X_LONG": -73.418613010100003, "Y_LAT": 5.4536645197000002, "direccion_": "LA ISLA VDA LA LAJITA", "DIRECC_NOR": null, "Fecha_actu": "2022-12-01", "VEREDA_V1": "LA LAJITA", "VEREDA_V2": "LA LAJITA", "Criterio_u": null }, "geometry": { "type": "Point", "coordinates": [ -73.418613010082311, 5.453664519701874 ] } },
{ "type": "Feature", "properties": { "OBJECTID": 146, "COD_MPIO": "15001", "X_LONG": -73.424263455900004, "Y_LAT": 5.4560407380899996, "direccion_": "LT 12", "DIRECC_NOR": null, "Fecha_actu": "2022-12-01", "VEREDA_V1": "LA HOYA", "VEREDA_V2": "LA HOYA", "Criterio_u": null }, "geometry": { "type": "Point", "coordinates": [ -73.424263455893708, 5.456040738089655 ] } },
{ "type": "Feature", "properties": { "OBJECTID": 147, "COD_MPIO": "15001", "X_LONG": -73.385779896200006, "Y_LAT": 5.4777246013100003, "direccion_": "MJ VDA RUNTA", "DIRECC_NOR": null, "Fecha_actu": "2022-12-01", "VEREDA_V1": "RUNTA", "VEREDA_V2": "RUNTA", "Criterio_u": null }, "geometry": { "type": "Point", "coordinates": [ -73.385779896225188, 5.477724601309376 ] } },
{ "type": "Feature", "properties": { "OBJECTID": 148, "COD_MPIO": "15001", "X_LONG": -73.390595679399993, "Y_LAT": 5.4792507508200003, "direccion_": "LT 6", "DIRECC_NOR": null, "Fecha_actu": "2022-12-01", "VEREDA_V1": "RUNTA", "VEREDA_V2": "RUNTA", "Criterio_u": null }, "geometry": { "type": "Point", "coordinates": [ -73.390595679447017, 5.479250750821564 ] } },
{ "type": "Feature", "properties": { "OBJECTID": 149, "COD_MPIO": "15001", "X_LONG": -73.431748513299993, "Y_LAT": 5.4764827023100002, "direccion_": "SANTA ELENA VDA LA HOYA", "DIRECC_NOR": null, "Fecha_actu": "2022-12-01", "VEREDA_V1": "LA HOYA", "VEREDA_V2": "LA HOYA", "Criterio_u": null }, "geometry": { "type": "Point", "coordinates": [ -73.431748513283196, 5.476482702314911 ] } },
{ "type": "Feature", "properties": { "OBJECTID": 150, "COD_MPIO": "15001", "X_LONG": -73.434395870100005, "Y_LAT": 5.4817883201699997, "direccion_": "SAN JORGE VDA LA HOYA", "DIRECC_NOR": null, "Fecha_actu": "2022-12-01", "VEREDA_V1": "LA HOYA", "VEREDA_V2": "LA HOYA", "Criterio_u": null }, "geometry": { "type": "Point", "coordinates": [ -73.434395870073331, 5.481788320174871 ] } },
{ "type": "Feature", "properties": { "OBJECTID": 151, "COD_MPIO": "15001", "X_LONG": -73.382799669799994, "Y_LAT": 5.4798956303799997, "direccion_": "LOS ENCENILLOS VDA RUNTA LO 9", "DIRECC_NOR": null, "Fecha_actu": "2022-12-01", "VEREDA_V1": "RUNTA", "VEREDA_V2": "RUNTA", "Criterio_u": null }, "geometry": { "type": "Point", "coordinates": [ -73.382799669768929, 5.479895630379076 ] } },
{ "type": "Feature", "properties": { "OBJECTID": 152, "COD_MPIO": "15001", "X_LONG": -73.438022110099993, "Y_LAT": 5.4761880502400002, "direccion_": "SANTA ISABEL LC 4 VDA LA HOYA", "DIRECC_NOR": null, "Fecha_actu": "2022-12-01", "VEREDA_V1": "LA HOYA", "VEREDA_V2": "LA HOYA", "Criterio_u": null }, "geometry": { "type": "Point", "coordinates": [ -73.438022110132238, 5.476188050238363 ] } },
{ "type": "Feature", "properties": { "OBJECTID": 153, "COD_MPIO": "15001", "X_LONG": -73.394384051100005, "Y_LAT": 5.4779351487900003, "direccion_": "LA CIRAGUATA VDA RUNTA", "DIRECC_NOR": null, "Fecha_actu": "2022-12-01", "VEREDA_V1": "RUNTA", "VEREDA_V2": "RUNTA", "Criterio_u": null }, "geometry": { "type": "Point", "coordinates": [ -73.39438405108308, 5.477935148788163 ] } },
{ "type": "Feature", "properties": { "OBJECTID": 154, "COD_MPIO": "15001", "X_LONG": -73.38574934, "Y_LAT": 5.4875738603500004, "direccion_": "LA CANADITA VDA RUNTA", "DIRECC_NOR": null, "Fecha_actu": "2022-12-01", "VEREDA_V1": "RUNTA", "VEREDA_V2": "RUNTA", "Criterio_u": null }, "geometry": { "type": "Point", "coordinates": [ -73.385749339960057, 5.487573860345435 ] } },
{ "type": "Feature", "properties": { "OBJECTID": 155, "COD_MPIO": "15001", "X_LONG": -73.382808379699995, "Y_LAT": 5.4875938801500004, "direccion_": "EL RECUERDO VDA RUNTA", "DIRECC_NOR": null, "Fecha_actu": "2022-12-01", "VEREDA_V1": "RUNTA", "VEREDA_V2": "RUNTA", "Criterio_u": null }, "geometry": { "type": "Point", "coordinates": [ -73.382808379702908, 5.487593880153497 ] } },
{ "type": "Feature", "properties": { "OBJECTID": 156, "COD_MPIO": "15001", "X_LONG": -73.380370480400003, "Y_LAT": 5.4911283399000004, "direccion_": "SANTA ELENA VDA RUNTA", "DIRECC_NOR": null, "Fecha_actu": "2022-12-01", "VEREDA_V1": "RUNTA", "VEREDA_V2": "RUNTA", "Criterio_u": null }, "geometry": { "type": "Point", "coordinates": [ -73.380370480413319, 5.491128339901024 ] } },
{ "type": "Feature", "properties": { "OBJECTID": 157, "COD_MPIO": "15001", "X_LONG": -73.387801330299993, "Y_LAT": 5.4839779697099997, "direccion_": "LA SALVIA VDA RUNTA", "DIRECC_NOR": null, "Fecha_actu": "2022-12-01", "VEREDA_V1": "RUNTA", "VEREDA_V2": "RUNTA", "Criterio_u": null }, "geometry": { "type": "Point", "coordinates": [ -73.387801330267166, 5.48397796970761 ] } },
{ "type": "Feature", "properties": { "OBJECTID": 158, "COD_MPIO": "15001", "X_LONG": -73.380250580099997, "Y_LAT": 5.4858142603199997, "direccion_": "LOS ENCENILLOS VDA RUNTA LO 1", "DIRECC_NOR": null, "Fecha_actu": "2022-12-01", "VEREDA_V1": "RUNTA", "VEREDA_V2": "RUNTA", "Criterio_u": null }, "geometry": { "type": "Point", "coordinates": [ -73.380250580100153, 5.485814260319898 ] } },
{ "type": "Feature", "properties": { "OBJECTID": 159, "COD_MPIO": "15001", "X_LONG": -73.358913157299995, "Y_LAT": 5.5099933941800003, "direccion_": "DE TERRENO VDA RUNTA", "DIRECC_NOR": null, "Fecha_actu": "2022-12-01", "VEREDA_V1": "RUNTA", "VEREDA_V2": "LA CABAR?n??A-RUNTA", "Criterio_u": null }, "geometry": { "type": "Point", "coordinates": [ -73.358913157316294, 5.509993394179844 ] } },
{ "type": "Feature", "properties": { "OBJECTID": 160, "COD_MPIO": "15001", "X_LONG": -73.379999469599994, "Y_LAT": 5.5105387601600002, "direccion_": "LAS DELICIAS VDA RUNTA", "DIRECC_NOR": null, "Fecha_actu": "2022-12-01", "VEREDA_V1": "RUNTA", "VEREDA_V2": "RUNTA PARTE ALTA", "Criterio_u": null }, "geometry": { "type": "Point", "coordinates": [ -73.379999469599795, 5.510538760155725 ] } },
{ "type": "Feature", "properties": { "OBJECTID": 161, "COD_MPIO": "15001", "X_LONG": -73.426002823900006, "Y_LAT": 5.4839252010899999, "direccion_": "EL GUAMO VDA LA HOYA", "DIRECC_NOR": null, "Fecha_actu": "2022-12-01", "VEREDA_V1": "LA HOYA", "VEREDA_V2": "LA HOYA", "Criterio_u": null }, "geometry": { "type": "Point", "coordinates": [ -73.426002823871158, 5.483925201087231 ] } },
{ "type": "Feature", "properties": { "OBJECTID": 162, "COD_MPIO": "15001", "X_LONG": -73.380922110200004, "Y_LAT": 5.49281546986, "direccion_": "EL ESPINO VDA RUNTA", "DIRECC_NOR": null, "Fecha_actu": "2022-12-01", "VEREDA_V1": "RUNTA", "VEREDA_V2": "RUNTA", "Criterio_u": null }, "geometry": { "type": "Point", "coordinates": [ -73.380922110167205, 5.492815469858101 ] } },
{ "type": "Feature", "properties": { "OBJECTID": 163, "COD_MPIO": "15001", "X_LONG": -73.382963330199999, "Y_LAT": 5.49281649958, "direccion_": "SANTA ROSITA VDA RUNTA", "DIRECC_NOR": null, "Fecha_actu": "2022-12-01", "VEREDA_V1": "RUNTA", "VEREDA_V2": "RUNTA", "Criterio_u": null }, "geometry": { "type": "Point", "coordinates": [ -73.38296333019349, 5.492816499581863 ] } },
{ "type": "Feature", "properties": { "OBJECTID": 164, "COD_MPIO": "15001", "X_LONG": -73.356128468700007, "Y_LAT": 5.5088803644400004, "direccion_": "LA ESPERANZA VDA RUNTA", "DIRECC_NOR": null, "Fecha_actu": "2022-12-01", "VEREDA_V1": "RUNTA", "VEREDA_V2": "LA CABAR?n??A-RUNTA", "Criterio_u": null }, "geometry": { "type": "Point", "coordinates": [ -73.356128468653878, 5.508880364437346 ] } },
{ "type": "Feature", "properties": { "OBJECTID": 165, "COD_MPIO": "15001", "X_LONG": -73.352853689900002, "Y_LAT": 5.5138757503700004, "direccion_": "VIAS VDA RUNTA", "DIRECC_NOR": null, "Fecha_actu": "2022-12-01", "VEREDA_V1": "RUNTA", "VEREDA_V2": "LA CABAR?n??A-RUNTA", "Criterio_u": null }, "geometry": { "type": "Point", "coordinates": [ -73.352853689945789, 5.513875750365628 ] } },
{ "type": "Feature", "properties": { "OBJECTID": 166, "COD_MPIO": "15001", "X_LONG": -73.4286528903, "Y_LAT": 5.4854541798699996, "direccion_": "EL PORVENIR UNO VDA LA HOYA", "DIRECC_NOR": null, "Fecha_actu": "2022-12-01", "VEREDA_V1": "LA HOYA", "VEREDA_V2": "LA HOYA", "Criterio_u": null }, "geometry": { "type": "Point", "coordinates": [ -73.428652890318574, 5.485454179866565 ] } },
{ "type": "Feature", "properties": { "OBJECTID": 167, "COD_MPIO": "15001", "X_LONG": -73.372276571200004, "Y_LAT": 5.49198980229, "direccion_": "LC DE TERRENO VDA RUNTA", "DIRECC_NOR": null, "Fecha_actu": "2022-12-01", "VEREDA_V1": "RUNTA", "VEREDA_V2": "LA CABAR?n??A-RUNTA", "Criterio_u": null }, "geometry": { "type": "Point", "coordinates": [ -73.372276571206783, 5.491989802287605 ] } },
{ "type": "Feature", "properties": { "OBJECTID": 168, "COD_MPIO": "15001", "X_LONG": -73.386248650799999, "Y_LAT": 5.4903725622400001, "direccion_": "EL MORAL VDA RUNTA", "DIRECC_NOR": null, "Fecha_actu": "2022-12-01", "VEREDA_V1": "RUNTA", "VEREDA_V2": "RUNTA PARTE ALTA", "Criterio_u": null }, "geometry": { "type": "Point", "coordinates": [ -73.386248650754567, 5.490372562243977 ] } },
{ "type": "Feature", "properties": { "OBJECTID": 169, "COD_MPIO": "15001", "X_LONG": -73.384149269800005, "Y_LAT": 5.4879052398399999, "direccion_": "MJ VDA RUNTA BAJO", "DIRECC_NOR": null, "Fecha_actu": "2022-12-01", "VEREDA_V1": "RUNTA", "VEREDA_V2": "RUNTA", "Criterio_u": null }, "geometry": { "type": "Point", "coordinates": [ -73.384149269772934, 5.487905239835015 ] } },
{ "type": "Feature", "properties": { "OBJECTID": 170, "COD_MPIO": "15001", "X_LONG": -73.354449405599993, "Y_LAT": 5.5128634446899998, "direccion_": "LC 11 VDA RUNTA", "DIRECC_NOR": null, "Fecha_actu": "2022-12-01", "VEREDA_V1": "RUNTA", "VEREDA_V2": "LA CABAR?n??A-RUNTA", "Criterio_u": null }, "geometry": { "type": "Point", "coordinates": [ -73.354449405615526, 5.512863444692243 ] } },
{ "type": "Feature", "properties": { "OBJECTID": 171, "COD_MPIO": "15001", "X_LONG": -73.383420739800002, "Y_LAT": 5.4933665204500004, "direccion_": "LA PLANADA VDA RUNTA", "DIRECC_NOR": null, "Fecha_actu": "2022-12-01", "VEREDA_V1": "RUNTA", "VEREDA_V2": "RUNTA", "Criterio_u": null }, "geometry": { "type": "Point", "coordinates": [ -73.383420739775261, 5.493366520448603 ] } },
{ "type": "Feature", "properties": { "OBJECTID": 172, "COD_MPIO": "15001", "X_LONG": -73.433653860099994, "Y_LAT": 5.4827773001300004, "direccion_": "EL PORVENIR VDA LA HOYA", "DIRECC_NOR": null, "Fecha_actu": "2022-12-01", "VEREDA_V1": "LA HOYA", "VEREDA_V2": "LA HOYA", "Criterio_u": null }, "geometry": { "type": "Point", "coordinates": [ -73.433653860137497, 5.482777300132341 ] } },
{ "type": "Feature", "properties": { "OBJECTID": 173, "COD_MPIO": "15001", "X_LONG": -73.387185086900004, "Y_LAT": 5.49104084936, "direccion_": "LAS MANITAS VDA RUNTA", "DIRECC_NOR": null, "Fecha_actu": "2022-12-01", "VEREDA_V1": "RUNTA", "VEREDA_V2": "RUNTA PARTE ALTA", "Criterio_u": null }, "geometry": { "type": "Point", "coordinates": [ -73.387185086922159, 5.491040849355784 ] } },
{ "type": "Feature", "properties": { "OBJECTID": 174, "COD_MPIO": "15001", "X_LONG": -73.380956475999994, "Y_LAT": 5.4920566911600002, "direccion_": "VILLA SILVIA VDA RUNTA", "DIRECC_NOR": null, "Fecha_actu": "2022-12-01", "VEREDA_V1": "RUNTA", "VEREDA_V2": "RUNTA", "Criterio_u": null }, "geometry": { "type": "Point", "coordinates": [ -73.380956475960545, 5.492056691163441 ] } },
{ "type": "Feature", "properties": { "OBJECTID": 175, "COD_MPIO": "15001", "X_LONG": -73.379642390200004, "Y_LAT": 5.4918444700500002, "direccion_": "LA ESMERALDA VDA RUNTA", "DIRECC_NOR": null, "Fecha_actu": "2022-12-01", "VEREDA_V1": "RUNTA", "VEREDA_V2": "RUNTA", "Criterio_u": null }, "geometry": { "type": "Point", "coordinates": [ -73.379642390184131, 5.491844470046317 ] } },
{ "type": "Feature", "properties": { "OBJECTID": 176, "COD_MPIO": "15001", "X_LONG": -73.42946455000001, "Y_LAT": 5.4849172396399997, "direccion_": "DOS VDA LA HOYA", "DIRECC_NOR": null, "Fecha_actu": "2022-12-01", "VEREDA_V1": "LA HOYA", "VEREDA_V2": "LA HOYA", "Criterio_u": null }, "geometry": { "type": "Point", "coordinates": [ -73.42946455004892, 5.484917239638946 ] } },
{ "type": "Feature", "properties": { "OBJECTID": 177, "COD_MPIO": "15001", "X_LONG": -73.378343046099999, "Y_LAT": 5.5087931832599999, "direccion_": "LOS RAMIREZ VDA RUNTA", "DIRECC_NOR": null, "Fecha_actu": "2022-12-01", "VEREDA_V1": "RUNTA", "VEREDA_V2": "RUNTA PARTE ALTA", "Criterio_u": null }, "geometry": { "type": "Point", "coordinates": [ -73.378343046094642, 5.508793183258831 ] } },
{ "type": "Feature", "properties": { "OBJECTID": 178, "COD_MPIO": "15001", "X_LONG": -73.349869480400002, "Y_LAT": 5.5097727104400001, "direccion_": "EL MIRADOR VDA RUNTA", "DIRECC_NOR": null, "Fecha_actu": "2022-12-01", "VEREDA_V1": "RUNTA", "VEREDA_V2": "LA CABAR?n??A-RUNTA", "Criterio_u": null }, "geometry": { "type": "Point", "coordinates": [ -73.349869480392158, 5.509772710442292 ] } },
{ "type": "Feature", "properties": { "OBJECTID": 179, "COD_MPIO": "15001", "X_LONG": -73.382932499600003, "Y_LAT": 5.4875627600100003, "direccion_": "EL RANCHITO VDA RUNTA", "DIRECC_NOR": null, "Fecha_actu": "2022-12-01", "VEREDA_V1": "RUNTA", "VEREDA_V2": "RUNTA", "Criterio_u": null }, "geometry": { "type": "Point", "coordinates": [ -73.382932499635103, 5.487562760013418 ] } },
{ "type": "Feature", "properties": { "OBJECTID": 180, "COD_MPIO": "15001", "X_LONG": -73.377870359699997, "Y_LAT": 5.4910741197700004, "direccion_": "LC 6 VDA RUNTA", "DIRECC_NOR": null, "Fecha_actu": "2022-12-01", "VEREDA_V1": "RUNTA", "VEREDA_V2": "RUNTA", "Criterio_u": null }, "geometry": { "type": "Point", "coordinates": [ -73.377870359729286, 5.491074119774851 ] } },
{ "type": "Feature", "properties": { "OBJECTID": 181, "COD_MPIO": "15001", "X_LONG": -73.379888760399993, "Y_LAT": 5.4910798997199999, "direccion_": "SAN ISIDRO VDA RUNTA", "DIRECC_NOR": null, "Fecha_actu": "2022-12-01", "VEREDA_V1": "RUNTA", "VEREDA_V2": "RUNTA", "Criterio_u": null }, "geometry": { "type": "Point", "coordinates": [ -73.379888760357971, 5.491079899717647 ] } },
{ "type": "Feature", "properties": { "OBJECTID": 182, "COD_MPIO": "15001", "X_LONG": -73.377695550400006, "Y_LAT": 5.4916856102000002, "direccion_": "LC 5 VDA RUNTA", "DIRECC_NOR": null, "Fecha_actu": "2022-12-01", "VEREDA_V1": "RUNTA", "VEREDA_V2": "RUNTA", "Criterio_u": null }, "geometry": { "type": "Point", "coordinates": [ -73.377695550409271, 5.491685610202808 ] } },
{ "type": "Feature", "properties": { "OBJECTID": 183, "COD_MPIO": "15001", "X_LONG": -73.386622739900005, "Y_LAT": 5.4838701203099998, "direccion_": "LAS BRISAS VDA RUNTA", "DIRECC_NOR": null, "Fecha_actu": "2022-12-01", "VEREDA_V1": "RUNTA", "VEREDA_V2": "RUNTA", "Criterio_u": null }, "geometry": { "type": "Point", "coordinates": [ -73.386622739947427, 5.483870120309859 ] } },
{ "type": "Feature", "properties": { "OBJECTID": 184, "COD_MPIO": "15001", "X_LONG": -73.4307541302, "Y_LAT": 5.4838784201499999, "direccion_": "DE TERRENO 4 VDA LA HOYA", "DIRECC_NOR": null, "Fecha_actu": "2022-12-01", "VEREDA_V1": "LA HOYA", "VEREDA_V2": "LA HOYA", "Criterio_u": null }, "geometry": { "type": "Point", "coordinates": [ -73.43075413019892, 5.483878420153019 ] } },
{ "type": "Feature", "properties": { "OBJECTID": 185, "COD_MPIO": "15001", "X_LONG": -73.3877715096, "Y_LAT": 5.4847240301899998, "direccion_": "LAS SALVIAS VDA RUNTA", "DIRECC_NOR": null, "Fecha_actu": "2022-12-01", "VEREDA_V1": "RUNTA", "VEREDA_V2": "RUNTA", "Criterio_u": null }, "geometry": { "type": "Point", "coordinates": [ -73.387771509647393, 5.484724030189909 ] } },
{ "type": "Feature", "properties": { "OBJECTID": 186, "COD_MPIO": "15001", "X_LONG": -73.390671960800006, "Y_LAT": 5.4849559239800003, "direccion_": "EL ALTO DEL PORTACHUELO VDA RUNTA", "DIRECC_NOR": null, "Fecha_actu": "2022-12-01", "VEREDA_V1": "RUNTA", "VEREDA_V2": "RUNTA PARTE ALTA", "Criterio_u": null }, "geometry": { "type": "Point", "coordinates": [ -73.390671960842269, 5.48495592397677 ] } },
{ "type": "Feature", "properties": { "OBJECTID": 187, "COD_MPIO": "15001", "X_LONG": -73.386680114900003, "Y_LAT": 5.4895121106999998, "direccion_": "LA ARENERA VDA RUNTA", "DIRECC_NOR": null, "Fecha_actu": "2022-12-01", "VEREDA_V1": "RUNTA", "VEREDA_V2": "RUNTA PARTE ALTA", "Criterio_u": null }, "geometry": { "type": "Point", "coordinates": [ -73.386680114895341, 5.489512110695387 ] } },
{ "type": "Feature", "properties": { "OBJECTID": 188, "COD_MPIO": "15001", "X_LONG": -73.376007590399993, "Y_LAT": 5.5090819843499998, "direccion_": "ES RUNTA VDA RUNTA", "DIRECC_NOR": null, "Fecha_actu": "2022-12-01", "VEREDA_V1": "RUNTA", "VEREDA_V2": "RUNTA PARTE ALTA", "Criterio_u": null }, "geometry": { "type": "Point", "coordinates": [ -73.376007590377981, 5.509081984346153 ] } },
{ "type": "Feature", "properties": { "OBJECTID": 189, "COD_MPIO": "15001", "X_LONG": -73.425854239700001, "Y_LAT": 5.4883633104199996, "direccion_": "LA HOYA VDA LA HOYA", "DIRECC_NOR": null, "Fecha_actu": "2022-12-01", "VEREDA_V1": "LA HOYA", "VEREDA_V2": "LA HOYA", "Criterio_u": null }, "geometry": { "type": "Point", "coordinates": [ -73.425854239681371, 5.488363310418492 ] } },
{ "type": "Feature", "properties": { "OBJECTID": 190, "COD_MPIO": "15001", "X_LONG": -73.3825756504, "Y_LAT": 5.48867255579, "direccion_": "EL LAUREL VDA RUNTA", "DIRECC_NOR": null, "Fecha_actu": "2022-12-01", "VEREDA_V1": "RUNTA", "VEREDA_V2": "RUNTA", "Criterio_u": null }, "geometry": { "type": "Point", "coordinates": [ -73.382575650445858, 5.488672555793869 ] } },
{ "type": "Feature", "properties": { "OBJECTID": 191, "COD_MPIO": "15001", "X_LONG": -73.3834290036, "Y_LAT": 5.4899844607099997, "direccion_": "LOS JOVALITOS VDA RUNTA", "DIRECC_NOR": null, "Fecha_actu": "2022-12-01", "VEREDA_V1": "RUNTA", "VEREDA_V2": "RUNTA", "Criterio_u": null }, "geometry": { "type": "Point", "coordinates": [ -73.383429003645574, 5.489984460714311 ] } },
{ "type": "Feature", "properties": { "OBJECTID": 192, "COD_MPIO": "15001", "X_LONG": -73.353506836099996, "Y_LAT": 5.5077061268399996, "direccion_": "LA PROVIDENCIA VDA RUNTA", "DIRECC_NOR": null, "Fecha_actu": "2022-12-01", "VEREDA_V1": "RUNTA", "VEREDA_V2": "LA CABAR?n??A-RUNTA", "Criterio_u": null }, "geometry": { "type": "Point", "coordinates": [ -73.353506836071574, 5.507706126836354 ] } },
{ "type": "Feature", "properties": { "OBJECTID": 193, "COD_MPIO": "15001", "X_LONG": -73.352663190200005, "Y_LAT": 5.5097152203800004, "direccion_": "EL CERRITO VDA RUNTA", "DIRECC_NOR": null, "Fecha_actu": "2022-12-01", "VEREDA_V1": "RUNTA", "VEREDA_V2": "LA CABAR?n??A-RUNTA", "Criterio_u": null }, "geometry": { "type": "Point", "coordinates": [ -73.35266319015409, 5.509715220381167 ] } },
{ "type": "Feature", "properties": { "OBJECTID": 194, "COD_MPIO": "15001", "X_LONG": -73.386262685600002, "Y_LAT": 5.4901011981099996, "direccion_": "LAS ACACIAS VDA RUNTA", "DIRECC_NOR": null, "Fecha_actu": "2022-12-01", "VEREDA_V1": "RUNTA", "VEREDA_V2": "RUNTA PARTE ALTA", "Criterio_u": null }, "geometry": { "type": "Point", "coordinates": [ -73.386262685574422, 5.490101198111859 ] } },
{ "type": "Feature", "properties": { "OBJECTID": 195, "COD_MPIO": "15001", "X_LONG": -73.385334425099998, "Y_LAT": 5.4905742163299998, "direccion_": "LA LOMITA VDA RUNTA", "DIRECC_NOR": null, "Fecha_actu": "2022-12-01", "VEREDA_V1": "RUNTA", "VEREDA_V2": "RUNTA PARTE ALTA", "Criterio_u": null }, "geometry": { "type": "Point", "coordinates": [ -73.385334425143583, 5.490574216327047 ] } },
{ "type": "Feature", "properties": { "OBJECTID": 196, "COD_MPIO": "15001", "X_LONG": -73.355206621299999, "Y_LAT": 5.5123205896199998, "direccion_": "LC 15 VDA RUNTA", "DIRECC_NOR": null, "Fecha_actu": "2022-12-01", "VEREDA_V1": "RUNTA", "VEREDA_V2": "LA CABAR?n??A-RUNTA", "Criterio_u": null }, "geometry": { "type": "Point", "coordinates": [ -73.355206621288517, 5.512320589623585 ] } },
{ "type": "Feature", "properties": { "OBJECTID": 197, "COD_MPIO": "15001", "X_LONG": -73.386151482599999, "Y_LAT": 5.5102950420800001, "direccion_": "EL TUNO VDA RUNTA", "DIRECC_NOR": null, "Fecha_actu": "2022-12-01", "VEREDA_V1": "RUNTA", "VEREDA_V2": "RUNTA PARTE ALTA", "Criterio_u": null }, "geometry": { "type": "Point", "coordinates": [ -73.386151482604816, 5.510295042082589 ] } },
{ "type": "Feature", "properties": { "OBJECTID": 198, "COD_MPIO": "15001", "X_LONG": -73.388946099799995, "Y_LAT": 5.5131856097299998, "direccion_": "EL POTRERITO VDA RUNTA", "DIRECC_NOR": null, "Fecha_actu": "2022-12-01", "VEREDA_V1": "RUNTA", "VEREDA_V2": "RUNTA PARTE ALTA", "Criterio_u": null }, "geometry": { "type": "Point", "coordinates": [ -73.388946099782629, 5.513185609728168 ] } },
{ "type": "Feature", "properties": { "OBJECTID": 199, "COD_MPIO": "15001", "X_LONG": -73.383911647299996, "Y_LAT": 5.4904365040399998, "direccion_": "EL PINO VDA RUNTA", "DIRECC_NOR": null, "Fecha_actu": "2022-12-01", "VEREDA_V1": "RUNTA", "VEREDA_V2": "RUNTA", "Criterio_u": null }, "geometry": { "type": "Point", "coordinates": [ -73.383911647304615, 5.490436504041497 ] } },
{ "type": "Feature", "properties": { "OBJECTID": 200, "COD_MPIO": "15001", "X_LONG": -73.38587127, "Y_LAT": 5.4904173997400001, "direccion_": "LA PALMA VDA RUNTA", "DIRECC_NOR": null, "Fecha_actu": "2022-12-01", "VEREDA_V1": "RUNTA", "VEREDA_V2": "RUNTA PARTE ALTA", "Criterio_u": null }, "geometry": { "type": "Point", "coordinates": [ -73.385871270043026, 5.490417399743251 ] } },
{ "type": "Feature", "properties": { "OBJECTID": 201, "COD_MPIO": "15001", "X_LONG": -73.378581979800003, "Y_LAT": 5.4827378603600003, "direccion_": "LOS ENCENILLOS VDA RUNTA LO 5", "DIRECC_NOR": null, "Fecha_actu": "2022-12-01", "VEREDA_V1": "RUNTA", "VEREDA_V2": "RUNTA", "Criterio_u": null }, "geometry": { "type": "Point", "coordinates": [ -73.378581979774481, 5.482737860364011 ] } },
{ "type": "Feature", "properties": { "OBJECTID": 202, "COD_MPIO": "15001", "X_LONG": -73.386644300300006, "Y_LAT": 5.4911718796800004, "direccion_": "LC 2 VDA RUNTA", "DIRECC_NOR": null, "Fecha_actu": "2022-12-01", "VEREDA_V1": "RUNTA", "VEREDA_V2": "RUNTA PARTE ALTA", "Criterio_u": null }, "geometry": { "type": "Point", "coordinates": [ -73.386644300294165, 5.491171879678575 ] } },
{ "type": "Feature", "properties": { "OBJECTID": 203, "COD_MPIO": "15001", "X_LONG": -73.423430549700001, "Y_LAT": 5.4840723301700001, "direccion_": "LA ROCHELA VDA LA HOYA", "DIRECC_NOR": null, "Fecha_actu": "2022-12-01", "VEREDA_V1": "LA HOYA", "VEREDA_V2": "LA HOYA", "Criterio_u": null }, "geometry": { "type": "Point", "coordinates": [ -73.423430549680063, 5.484072330173944 ] } },
{ "type": "Feature", "properties": { "OBJECTID": 204, "COD_MPIO": "15001", "X_LONG": -73.353114519399995, "Y_LAT": 5.5125055136199999, "direccion_": "LT 18", "DIRECC_NOR": null, "Fecha_actu": "2022-12-01", "VEREDA_V1": "RUNTA", "VEREDA_V2": "LA CABAR?n??A-RUNTA", "Criterio_u": null }, "geometry": { "type": "Point", "coordinates": [ -73.353114519419478, 5.512505513618635 ] } },
{ "type": "Feature", "properties": { "OBJECTID": 205, "COD_MPIO": "15001", "X_LONG": -73.359485539800005, "Y_LAT": 5.5097581081499998, "direccion_": "EL BOSQUE VDA RUNTA", "DIRECC_NOR": null, "Fecha_actu": "2022-12-01", "VEREDA_V1": "RUNTA", "VEREDA_V2": "LA CABAR?n??A-RUNTA", "Criterio_u": null }, "geometry": { "type": "Point", "coordinates": [ -73.359485539825755, 5.509758108150208 ] } },
{ "type": "Feature", "properties": { "OBJECTID": 206, "COD_MPIO": "15001", "X_LONG": -73.404897639300003, "Y_LAT": 5.5115380850099998, "direccion_": "LA COLONIA VDA EL PORVENIR", "DIRECC_NOR": null, "Fecha_actu": "2022-12-01", "VEREDA_V1": "EL PORVENIR", "VEREDA_V2": "PORVENIR", "Criterio_u": null }, "geometry": { "type": "Point", "coordinates": [ -73.404897639314584, 5.511538085014649 ] } },
{ "type": "Feature", "properties": { "OBJECTID": 207, "COD_MPIO": "15001", "X_LONG": -73.380943389899997, "Y_LAT": 5.5106197701899999, "direccion_": "BRISAS DEL ORIENTE VDA RUNTA", "DIRECC_NOR": null, "Fecha_actu": "2022-12-01", "VEREDA_V1": "RUNTA", "VEREDA_V2": "RUNTA PARTE ALTA", "Criterio_u": null }, "geometry": { "type": "Point", "coordinates": [ -73.380943389925449, 5.510619770186281 ] } },
{ "type": "Feature", "properties": { "OBJECTID": 208, "COD_MPIO": "15001", "X_LONG": -73.406016840199996, "Y_LAT": 5.5138634197599998, "direccion_": "EL ARRAYAN VDA PORVENIR", "DIRECC_NOR": null, "Fecha_actu": "2022-12-01", "VEREDA_V1": "EL PORVENIR", "VEREDA_V2": "PORVENIR", "Criterio_u": null }, "geometry": { "type": "Point", "coordinates": [ -73.406016840204984, 5.513863419761037 ] } },
{ "type": "Feature", "properties": { "OBJECTID": 209, "COD_MPIO": "15001", "X_LONG": -73.425959062900006, "Y_LAT": 5.4817314569400004, "direccion_": "EL ENCENILLO VDA LA HOYA", "DIRECC_NOR": null, "Fecha_actu": "2022-12-01", "VEREDA_V1": "LA HOYA", "VEREDA_V2": "LA HOYA", "Criterio_u": null }, "geometry": { "type": "Point", "coordinates": [ -73.425959062860443, 5.481731456941247 ] } },
{ "type": "Feature", "properties": { "OBJECTID": 210, "COD_MPIO": "15001", "X_LONG": -73.38379206, "Y_LAT": 5.4885071497900002, "direccion_": "LA PRADERA VDA RUNTA", "DIRECC_NOR": null, "Fecha_actu": "2022-12-01", "VEREDA_V1": "RUNTA", "VEREDA_V2": "RUNTA", "Criterio_u": null }, "geometry": { "type": "Point", "coordinates": [ -73.383792059955567, 5.488507149785164 ] } },
{ "type": "Feature", "properties": { "OBJECTID": 211, "COD_MPIO": "15001", "X_LONG": -73.430437950200002, "Y_LAT": 5.4846816001800001, "direccion_": "DE TERRENO 3 VDA LA HOYA", "DIRECC_NOR": null, "Fecha_actu": "2022-12-01", "VEREDA_V1": "LA HOYA", "VEREDA_V2": "LA HOYA", "Criterio_u": null }, "geometry": { "type": "Point", "coordinates": [ -73.430437950151259, 5.484681600175747 ] } },
{ "type": "Feature", "properties": { "OBJECTID": 212, "COD_MPIO": "15001", "X_LONG": -73.389675170299995, "Y_LAT": 5.4891990602899998, "direccion_": "EL ALTO DEL MORAL VDA RUNTA", "DIRECC_NOR": null, "Fecha_actu": "2022-12-01", "VEREDA_V1": "RUNTA", "VEREDA_V2": "RUNTA PARTE ALTA", "Criterio_u": null }, "geometry": { "type": "Point", "coordinates": [ -73.389675170272824, 5.489199060288456 ] } },
{ "type": "Feature", "properties": { "OBJECTID": 213, "COD_MPIO": "15001", "X_LONG": -73.379189239799999, "Y_LAT": 5.5104784597099998, "direccion_": "SANTA CECILIA VDA RUNTA", "DIRECC_NOR": null, "Fecha_actu": "2022-12-01", "VEREDA_V1": "RUNTA", "VEREDA_V2": "RUNTA PARTE ALTA", "Criterio_u": null }, "geometry": { "type": "Point", "coordinates": [ -73.379189239791572, 5.51047845971317 ] } },
{ "type": "Feature", "properties": { "OBJECTID": 214, "COD_MPIO": "15001", "X_LONG": -73.381663219900005, "Y_LAT": 5.5104981395800001, "direccion_": "SANTA INES VDA RUNTA", "DIRECC_NOR": null, "Fecha_actu": "2022-12-01", "VEREDA_V1": "RUNTA", "VEREDA_V2": "RUNTA PARTE ALTA", "Criterio_u": null }, "geometry": { "type": "Point", "coordinates": [ -73.381663219881659, 5.510498139577521 ] } },
{ "type": "Feature", "properties": { "OBJECTID": 215, "COD_MPIO": "15001", "X_LONG": -73.406112430899995, "Y_LAT": 5.5111637080399998, "direccion_": "TRES ESQUINAS VDA EL PORVENIR", "DIRECC_NOR": null, "Fecha_actu": "2022-12-01", "VEREDA_V1": "EL PORVENIR", "VEREDA_V2": "PORVENIR", "Criterio_u": null }, "geometry": { "type": "Point", "coordinates": [ -73.406112430943892, 5.511163708038737 ] } },
{ "type": "Feature", "properties": { "OBJECTID": 216, "COD_MPIO": "15001", "X_LONG": -73.383287980999995, "Y_LAT": 5.4861032250799999, "direccion_": "LA MELGA VDA RUNTA", "DIRECC_NOR": null, "Fecha_actu": "2022-12-01", "VEREDA_V1": "RUNTA", "VEREDA_V2": "RUNTA", "Criterio_u": null }, "geometry": { "type": "Point", "coordinates": [ -73.383287980955515, 5.486103225083809 ] } },
{ "type": "Feature", "properties": { "OBJECTID": 217, "COD_MPIO": "15001", "X_LONG": -73.378770205199999, "Y_LAT": 5.4935597613700002, "direccion_": "CA VDA RUNTA", "DIRECC_NOR": null, "Fecha_actu": "2022-12-01", "VEREDA_V1": "RUNTA", "VEREDA_V2": "RUNTA", "Criterio_u": null }, "geometry": { "type": "Point", "coordinates": [ -73.378770205180786, 5.493559761373945 ] } },
{ "type": "Feature", "properties": { "OBJECTID": 218, "COD_MPIO": "15001", "X_LONG": -73.382641850400006, "Y_LAT": 5.4871191999900004, "direccion_": "EL DUBAN VDA RUNTA", "DIRECC_NOR": null, "Fecha_actu": "2022-12-01", "VEREDA_V1": "RUNTA", "VEREDA_V2": "RUNTA", "Criterio_u": null }, "geometry": { "type": "Point", "coordinates": [ -73.382641850441019, 5.487119199991128 ] } },
{ "type": "Feature", "properties": { "OBJECTID": 219, "COD_MPIO": "15001", "X_LONG": -73.389699600399993, "Y_LAT": 5.4871446301200004, "direccion_": "SAN DIEGO VDA RUNTA LT 7", "DIRECC_NOR": null, "Fecha_actu": "2022-12-01", "VEREDA_V1": "RUNTA", "VEREDA_V2": "RUNTA PARTE ALTA", "Criterio_u": null }, "geometry": { "type": "Point", "coordinates": [ -73.389699600356209, 5.487144630120611 ] } },
{ "type": "Feature", "properties": { "OBJECTID": 220, "COD_MPIO": "15001", "X_LONG": -73.375664329900005, "Y_LAT": 5.49069846037, "direccion_": "EL CARMEN VDA RUNTA", "DIRECC_NOR": null, "Fecha_actu": "2022-12-01", "VEREDA_V1": "RUNTA", "VEREDA_V2": "RUNTA", "Criterio_u": null }, "geometry": { "type": "Point", "coordinates": [ -73.375664329944811, 5.490698460365707 ] } },
{ "type": "Feature", "properties": { "OBJECTID": 221, "COD_MPIO": "15001", "X_LONG": -73.376492500300003, "Y_LAT": 5.5084386498200004, "direccion_": "LT 7", "DIRECC_NOR": null, "Fecha_actu": "2022-12-01", "VEREDA_V1": "RUNTA", "VEREDA_V2": "RUNTA PARTE ALTA", "Criterio_u": null }, "geometry": { "type": "Point", "coordinates": [ -73.376492500328595, 5.508438649823859 ] } },
{ "type": "Feature", "properties": { "OBJECTID": 222, "COD_MPIO": "15001", "X_LONG": -73.354816569099995, "Y_LAT": 5.5126656567900003, "direccion_": "LC 13 VDA RUNTA", "DIRECC_NOR": null, "Fecha_actu": "2022-12-01", "VEREDA_V1": "RUNTA", "VEREDA_V2": "LA CABAR?n??A-RUNTA", "Criterio_u": null }, "geometry": { "type": "Point", "coordinates": [ -73.354816569129298, 5.512665656794695 ] } },
{ "type": "Feature", "properties": { "OBJECTID": 223, "COD_MPIO": "15001", "X_LONG": -73.386424164199994, "Y_LAT": 5.5093969503100002, "direccion_": "LA VEGA VDA RUNTA", "DIRECC_NOR": null, "Fecha_actu": "2022-12-01", "VEREDA_V1": "RUNTA", "VEREDA_V2": "RUNTA PARTE ALTA", "Criterio_u": null }, "geometry": { "type": "Point", "coordinates": [ -73.386424164243749, 5.509396950309053 ] } },
{ "type": "Feature", "properties": { "OBJECTID": 224, "COD_MPIO": "15001", "X_LONG": -73.383737620399998, "Y_LAT": 5.4911524597200003, "direccion_": "VILLA MARIA VDA RUNTA", "DIRECC_NOR": null, "Fecha_actu": "2022-12-01", "VEREDA_V1": "RUNTA", "VEREDA_V2": "RUNTA", "Criterio_u": null }, "geometry": { "type": "Point", "coordinates": [ -73.383737620394811, 5.491152459718307 ] } },
{ "type": "Feature", "properties": { "OBJECTID": 225, "COD_MPIO": "15001", "X_LONG": -73.382967941900006, "Y_LAT": 5.4824594932100004, "direccion_": "LOS ALIZOS VDA RUNTA", "DIRECC_NOR": null, "Fecha_actu": "2022-12-01", "VEREDA_V1": "RUNTA", "VEREDA_V2": "RUNTA", "Criterio_u": null }, "geometry": { "type": "Point", "coordinates": [ -73.382967941916945, 5.482459493211081 ] } },
{ "type": "Feature", "properties": { "OBJECTID": 226, "COD_MPIO": "15001", "X_LONG": -73.383425356000004, "Y_LAT": 5.4916673926400001, "direccion_": "SANTA ROSITA VDA RUNTA LT 3", "DIRECC_NOR": null, "Fecha_actu": "2022-12-01", "VEREDA_V1": "RUNTA", "VEREDA_V2": "RUNTA", "Criterio_u": null }, "geometry": { "type": "Point", "coordinates": [ -73.383425355995371, 5.491667392636089 ] } },
{ "type": "Feature", "properties": { "OBJECTID": 227, "COD_MPIO": "15001", "X_LONG": -73.377269859899997, "Y_LAT": 5.5118051099200001, "direccion_": "LA MANGUITA VDA RUNTA", "DIRECC_NOR": null, "Fecha_actu": "2022-12-01", "VEREDA_V1": "RUNTA", "VEREDA_V2": "RUNTA PARTE ALTA", "Criterio_u": null }, "geometry": { "type": "Point", "coordinates": [ -73.377269859916055, 5.51180510991793 ] } },
{ "type": "Feature", "properties": { "OBJECTID": 228, "COD_MPIO": "15001", "X_LONG": -73.382685179800006, "Y_LAT": 5.4876523198999996, "direccion_": "EL ALJIBE VDA RUNTA", "DIRECC_NOR": null, "Fecha_actu": "2022-12-01", "VEREDA_V1": "RUNTA", "VEREDA_V2": "RUNTA", "Criterio_u": null }, "geometry": { "type": "Point", "coordinates": [ -73.382685179777184, 5.4876523198987 ] } },
{ "type": "Feature", "properties": { "OBJECTID": 229, "COD_MPIO": "15001", "X_LONG": -73.386846930100006, "Y_LAT": 5.4917733399699999, "direccion_": "LOS LAURELES VDA RUNTA", "DIRECC_NOR": null, "Fecha_actu": "2022-12-01", "VEREDA_V1": "RUNTA", "VEREDA_V2": "RUNTA PARTE ALTA", "Criterio_u": null }, "geometry": { "type": "Point", "coordinates": [ -73.386846930141701, 5.491773339967722 ] } },
{ "type": "Feature", "properties": { "OBJECTID": 230, "COD_MPIO": "15001", "X_LONG": -73.382366812599997, "Y_LAT": 5.4850464848099998, "direccion_": "LAS LAGUNAS VDA RUNTA", "DIRECC_NOR": null, "Fecha_actu": "2022-12-01", "VEREDA_V1": "RUNTA", "VEREDA_V2": "RUNTA", "Criterio_u": null }, "geometry": { "type": "Point", "coordinates": [ -73.382366812578312, 5.485046484807469 ] } },
{ "type": "Feature", "properties": { "OBJECTID": 231, "COD_MPIO": "15001", "X_LONG": -73.383068335900006, "Y_LAT": 5.4894011046799998, "direccion_": "LA PALMITA VDA RUNTA", "DIRECC_NOR": null, "Fecha_actu": "2022-12-01", "VEREDA_V1": "RUNTA", "VEREDA_V2": "RUNTA", "Criterio_u": null }, "geometry": { "type": "Point", "coordinates": [ -73.383068335934922, 5.489401104677313 ] } },
{ "type": "Feature", "properties": { "OBJECTID": 232, "COD_MPIO": "15001", "X_LONG": -73.379335885900005, "Y_LAT": 5.4927904516200003, "direccion_": "EL CARMEN VDA RUNTA LT 3", "DIRECC_NOR": null, "Fecha_actu": "2022-12-01", "VEREDA_V1": "RUNTA", "VEREDA_V2": "RUNTA", "Criterio_u": null }, "geometry": { "type": "Point", "coordinates": [ -73.379335885942339, 5.492790451618077 ] } },
{ "type": "Feature", "properties": { "OBJECTID": 233, "COD_MPIO": "15001", "X_LONG": -73.37633109, "Y_LAT": 5.4924236901, "direccion_": "SANTA ISABEL VDA RUNTA", "DIRECC_NOR": null, "Fecha_actu": "2022-12-01", "VEREDA_V1": "RUNTA", "VEREDA_V2": "RUNTA", "Criterio_u": null }, "geometry": { "type": "Point", "coordinates": [ -73.376331090007739, 5.492423690101248 ] } },
{ "type": "Feature", "properties": { "OBJECTID": 234, "COD_MPIO": "15001", "X_LONG": -73.385520153100003, "Y_LAT": 5.5074749938799998, "direccion_": "SAN MARTIN VDA RUNTA", "DIRECC_NOR": null, "Fecha_actu": "2022-12-01", "VEREDA_V1": "RUNTA", "VEREDA_V2": "RUNTA PARTE ALTA", "Criterio_u": null }, "geometry": { "type": "Point", "coordinates": [ -73.385520153132518, 5.507474993875917 ] } },
{ "type": "Feature", "properties": { "OBJECTID": 235, "COD_MPIO": "15001", "X_LONG": -73.3883105237, "Y_LAT": 5.5090785552300003, "direccion_": "EL DIAMANTE VDA RUNTA", "DIRECC_NOR": null, "Fecha_actu": "2022-12-01", "VEREDA_V1": "RUNTA", "VEREDA_V2": "RUNTA PARTE ALTA", "Criterio_u": null }, "geometry": { "type": "Point", "coordinates": [ -73.388310523711652, 5.509078555231213 ] } },
{ "type": "Feature", "properties": { "OBJECTID": 236, "COD_MPIO": "15001", "X_LONG": -73.377466930200001, "Y_LAT": 5.5110422402100001, "direccion_": "SANTA MARIA VDA RUNTA", "DIRECC_NOR": null, "Fecha_actu": "2022-12-01", "VEREDA_V1": "RUNTA", "VEREDA_V2": "RUNTA PARTE ALTA", "Criterio_u": null }, "geometry": { "type": "Point", "coordinates": [ -73.37746693015464, 5.511042240207246 ] } },
{ "type": "Feature", "properties": { "OBJECTID": 237, "COD_MPIO": "15001", "X_LONG": -73.376027999599998, "Y_LAT": 5.4916032799699996, "direccion_": "SAN RICARDO VDA RUNTA", "DIRECC_NOR": null, "Fecha_actu": "2022-12-01", "VEREDA_V1": "RUNTA", "VEREDA_V2": "RUNTA", "Criterio_u": null }, "geometry": { "type": "Point", "coordinates": [ -73.376027999592452, 5.491603279967421 ] } },
{ "type": "Feature", "properties": { "OBJECTID": 238, "COD_MPIO": "15001", "X_LONG": -73.376576850399999, "Y_LAT": 5.4916104601500004, "direccion_": "SAN PEDRO VDA RUNTA", "DIRECC_NOR": null, "Fecha_actu": "2022-12-01", "VEREDA_V1": "RUNTA", "VEREDA_V2": "RUNTA", "Criterio_u": null }, "geometry": { "type": "Point", "coordinates": [ -73.376576850441268, 5.491610460154675 ] } },
{ "type": "Feature", "properties": { "OBJECTID": 239, "COD_MPIO": "15001", "X_LONG": -73.378479430100001, "Y_LAT": 5.4891436899299997, "direccion_": "EL DIAMANTE VR RUNTA", "DIRECC_NOR": null, "Fecha_actu": "2022-12-01", "VEREDA_V1": "RUNTA", "VEREDA_V2": "RUNTA", "Criterio_u": null }, "geometry": { "type": "Point", "coordinates": [ -73.378479430081597, 5.489143689929392 ] } },
{ "type": "Feature", "properties": { "OBJECTID": 240, "COD_MPIO": "15001", "X_LONG": -73.38349813000001, "Y_LAT": 5.4891567597800002, "direccion_": "FRANJA DE TERRENO VDA RUNTA", "DIRECC_NOR": null, "Fecha_actu": "2022-12-01", "VEREDA_V1": "RUNTA", "VEREDA_V2": "RUNTA", "Criterio_u": null }, "geometry": { "type": "Point", "coordinates": [ -73.383498130034639, 5.489156759776677 ] } },
{ "type": "Feature", "properties": { "OBJECTID": 241, "COD_MPIO": "15001", "X_LONG": -73.379485346099997, "Y_LAT": 5.4925857910999998, "direccion_": "EL CARMEN VDA RUNTA LT 10", "DIRECC_NOR": null, "Fecha_actu": "2022-12-01", "VEREDA_V1": "RUNTA", "VEREDA_V2": "RUNTA", "Criterio_u": null }, "geometry": { "type": "Point", "coordinates": [ -73.379485346071817, 5.492585791101419 ] } },
{ "type": "Feature", "properties": { "OBJECTID": 242, "COD_MPIO": "15001", "X_LONG": -73.384567668599999, "Y_LAT": 5.4932250382100003, "direccion_": "LA UNION VDA RUNTA", "DIRECC_NOR": null, "Fecha_actu": "2022-12-01", "VEREDA_V1": "RUNTA", "VEREDA_V2": "RUNTA", "Criterio_u": null }, "geometry": { "type": "Point", "coordinates": [ -73.384567668563022, 5.493225038205026 ] } },
{ "type": "Feature", "properties": { "OBJECTID": 243, "COD_MPIO": "15001", "X_LONG": -73.379232078100003, "Y_LAT": 5.4931492910099999, "direccion_": "LC 12 VDA RUNTA", "DIRECC_NOR": null, "Fecha_actu": "2022-12-01", "VEREDA_V1": "RUNTA", "VEREDA_V2": "RUNTA", "Criterio_u": null }, "geometry": { "type": "Point", "coordinates": [ -73.379232078097914, 5.493149291007001 ] } },
{ "type": "Feature", "properties": { "OBJECTID": 244, "COD_MPIO": "15001", "X_LONG": -73.385699182099998, "Y_LAT": 5.5074532401700003, "direccion_": "EL PORVENIR VDA RUNTA", "DIRECC_NOR": null, "Fecha_actu": "2022-12-01", "VEREDA_V1": "RUNTA", "VEREDA_V2": "RUNTA PARTE ALTA", "Criterio_u": null }, "geometry": { "type": "Point", "coordinates": [ -73.385699182071562, 5.507453240174925 ] } },
{ "type": "Feature", "properties": { "OBJECTID": 245, "COD_MPIO": "15001", "X_LONG": -73.353917396400007, "Y_LAT": 5.5118872396, "direccion_": "LA CONCEPCION VDA RUNTA", "DIRECC_NOR": null, "Fecha_actu": "2022-12-01", "VEREDA_V1": "RUNTA", "VEREDA_V2": "LA CABAR?n??A-RUNTA", "Criterio_u": null }, "geometry": { "type": "Point", "coordinates": [ -73.353917396370719, 5.511887239604448 ] } },
{ "type": "Feature", "properties": { "OBJECTID": 246, "COD_MPIO": "15001", "X_LONG": -73.379028756699995, "Y_LAT": 5.5117896766500003, "direccion_": "SANTA RITA VDA RUNTA", "DIRECC_NOR": null, "Fecha_actu": "2022-12-01", "VEREDA_V1": "RUNTA", "VEREDA_V2": "RUNTA PARTE ALTA", "Criterio_u": null }, "geometry": { "type": "Point", "coordinates": [ -73.379028756671744, 5.511789676652313 ] } },
{ "type": "Feature", "properties": { "OBJECTID": 247, "COD_MPIO": "15001", "X_LONG": -73.356419722200002, "Y_LAT": 5.5116282357499999, "direccion_": "LC 16 VDA RUNTA", "DIRECC_NOR": null, "Fecha_actu": "2022-12-01", "VEREDA_V1": "RUNTA", "VEREDA_V2": "LA CABAR?n??A-RUNTA", "Criterio_u": null }, "geometry": { "type": "Point", "coordinates": [ -73.356419722192413, 5.511628235754529 ] } },
{ "type": "Feature", "properties": { "OBJECTID": 248, "COD_MPIO": "15001", "X_LONG": -73.408152310099993, "Y_LAT": 5.5138408701600001, "direccion_": "EL RUBI VDA EL PORVENIR", "DIRECC_NOR": null, "Fecha_actu": "2022-12-01", "VEREDA_V1": "EL PORVENIR", "VEREDA_V2": "PORVENIR", "Criterio_u": null }, "geometry": { "type": "Point", "coordinates": [ -73.408152310080993, 5.513840870160095 ] } },
{ "type": "Feature", "properties": { "OBJECTID": 249, "COD_MPIO": "15001", "X_LONG": -73.384764092200001, "Y_LAT": 5.5075285979700004, "direccion_": "EL BOQUERON VDA RUNTA", "DIRECC_NOR": null, "Fecha_actu": "2022-12-01", "VEREDA_V1": "RUNTA", "VEREDA_V2": "RUNTA PARTE ALTA", "Criterio_u": null }, "geometry": { "type": "Point", "coordinates": [ -73.384764092189073, 5.507528597966484 ] } },
{ "type": "Feature", "properties": { "OBJECTID": 250, "COD_MPIO": "15001", "X_LONG": -73.3813103934, "Y_LAT": 5.4925875447800001, "direccion_": "EL ARRAYAN VDA RUNTA", "DIRECC_NOR": null, "Fecha_actu": "2022-12-01", "VEREDA_V1": "RUNTA", "VEREDA_V2": "RUNTA", "Criterio_u": null }, "geometry": { "type": "Point", "coordinates": [ -73.381310393359911, 5.49258754477944 ] } },
{ "type": "Feature", "properties": { "OBJECTID": 251, "COD_MPIO": "15001", "X_LONG": -73.390033169700004, "Y_LAT": 5.4862923803900001, "direccion_": "SANTA ANA VDA RUNTA LT 11", "DIRECC_NOR": null, "Fecha_actu": "2022-12-01", "VEREDA_V1": "RUNTA", "VEREDA_V2": "RUNTA PARTE ALTA", "Criterio_u": null }, "geometry": { "type": "Point", "coordinates": [ -73.390033169694959, 5.486292380389102 ] } },
{ "type": "Feature", "properties": { "OBJECTID": 252, "COD_MPIO": "15001", "X_LONG": -73.376908085099998, "Y_LAT": 5.4931916212000003, "direccion_": "LA FALDA DEL RIO VDA RUNTA", "DIRECC_NOR": null, "Fecha_actu": "2022-12-01", "VEREDA_V1": "RUNTA", "VEREDA_V2": "RUNTA", "Criterio_u": null }, "geometry": { "type": "Point", "coordinates": [ -73.376908085139974, 5.493191621196388 ] } },
{ "type": "Feature", "properties": { "OBJECTID": 253, "COD_MPIO": "15001", "X_LONG": -73.376024389700007, "Y_LAT": 5.4936333510999997, "direccion_": "SAN VICENTE VDA RUNTA", "DIRECC_NOR": null, "Fecha_actu": "2022-12-01", "VEREDA_V1": "RUNTA", "VEREDA_V2": "RUNTA", "Criterio_u": null }, "geometry": { "type": "Point", "coordinates": [ -73.376024389713791, 5.49363335109831 ] } },
{ "type": "Feature", "properties": { "OBJECTID": 254, "COD_MPIO": "15001", "X_LONG": -73.426645095400005, "Y_LAT": 5.4845810478799999, "direccion_": "RUCHICAL VDA LA HOYA", "DIRECC_NOR": null, "Fecha_actu": "2022-12-01", "VEREDA_V1": "LA HOYA", "VEREDA_V2": "LA HOYA", "Criterio_u": null }, "geometry": { "type": "Point", "coordinates": [ -73.426645095394804, 5.4845810478771 ] } },
{ "type": "Feature", "properties": { "OBJECTID": 255, "COD_MPIO": "15001", "X_LONG": -73.389950670399998, "Y_LAT": 5.48649997, "direccion_": "SANTA MONICA VDA RUNTA LT 10", "DIRECC_NOR": null, "Fecha_actu": "2022-12-01", "VEREDA_V1": "RUNTA", "VEREDA_V2": "RUNTA PARTE ALTA", "Criterio_u": null }, "geometry": { "type": "Point", "coordinates": [ -73.389950670387066, 5.486499969997681 ] } },
{ "type": "Feature", "properties": { "OBJECTID": 256, "COD_MPIO": "15001", "X_LONG": -73.377580117899996, "Y_LAT": 5.5089403618099997, "direccion_": "SPAC VDA RUNTA", "DIRECC_NOR": null, "Fecha_actu": "2022-12-01", "VEREDA_V1": "RUNTA", "VEREDA_V2": "RUNTA PARTE ALTA", "Criterio_u": null }, "geometry": { "type": "Point", "coordinates": [ -73.377580117928062, 5.5089403618083 ] } },
{ "type": "Feature", "properties": { "OBJECTID": 257, "COD_MPIO": "15001", "X_LONG": -73.378667797600002, "Y_LAT": 5.5090319478699996, "direccion_": "LA MESETA VDA RUNTA", "DIRECC_NOR": null, "Fecha_actu": "2022-12-01", "VEREDA_V1": "RUNTA", "VEREDA_V2": "RUNTA PARTE ALTA", "Criterio_u": null }, "geometry": { "type": "Point", "coordinates": [ -73.378667797580761, 5.509031947866163 ] } },
{ "type": "Feature", "properties": { "OBJECTID": 258, "COD_MPIO": "15001", "X_LONG": -73.383102356400002, "Y_LAT": 5.4905227382300001, "direccion_": "EL RUBI VDA RUNTA", "DIRECC_NOR": null, "Fecha_actu": "2022-12-01", "VEREDA_V1": "RUNTA", "VEREDA_V2": "RUNTA", "Criterio_u": null }, "geometry": { "type": "Point", "coordinates": [ -73.383102356388576, 5.490522738233835 ] } },
{ "type": "Feature", "properties": { "OBJECTID": 259, "COD_MPIO": "15001", "X_LONG": -73.4261834239, "Y_LAT": 5.4843911011699999, "direccion_": "EL CERRITO VDA LA HOYA", "DIRECC_NOR": null, "Fecha_actu": "2022-12-01", "VEREDA_V1": "LA HOYA", "VEREDA_V2": "LA HOYA", "Criterio_u": null },