{"type":"FeatureCollection","crs":{"type":"name","properties":{"name":"EPSG:4686"}},"features":[{"type":"Feature","id":0,"geometry":{"type":"Point","coordinates":[-73.383984255868654,5.5046430170616532]},"properties":{"FID":0,"COD_MPIO":"15001","X_LONG":-73.383984255900003,"Y_LAT":5.5046430170600003,"direccion_":"SAN ANTONIO VDA RUNTA","DIRECC_NOR":" ","Fecha_actu":1669852800000,"VEREDA_V1":"RUNTA","VEREDA_V2":"RUNTA PARTE ALTA","Criterio_u":"Acceso ubicado en vía"}},{"type":"Feature","id":1,"geometry":{"type":"Point","coordinates":[-73.381846787699033,5.491028580804425]},"properties":{"FID":1,"COD_MPIO":"15001","X_LONG":-73.381846787699999,"Y_LAT":5.4910285808000001,"direccion_":"LA LAGUNA VDA RUNTA","DIRECC_NOR":" ","Fecha_actu":1669852800000,"VEREDA_V1":"RUNTA","VEREDA_V2":"RUNTA","Criterio_u":"Acceso ubicado en vía"}},{"type":"Feature","id":2,"geometry":{"type":"Point","coordinates":[-73.410776490442629,5.4544550201831044]},"properties":{"FID":2,"COD_MPIO":"15001","X_LONG":-73.410776490399996,"Y_LAT":5.4544550201800002,"direccion_":"LAS MANITAS VDA LA LAJITA","DIRECC_NOR":" ","Fecha_actu":1669852800000,"VEREDA_V1":"LA LAJITA","VEREDA_V2":"LA LAJITA","Criterio_u":"Sin acceso definido"}},{"type":"Feature","id":3,"geometry":{"type":"Point","coordinates":[-73.424785399926236,5.454978619867461]},"properties":{"FID":3,"COD_MPIO":"15001","X_LONG":-73.424785399900003,"Y_LAT":5.4549786198700003,"direccion_":"LC 9 VDA LA HOYA","DIRECC_NOR":" ","Fecha_actu":1669852800000,"VEREDA_V1":"LA HOYA","VEREDA_V2":"LA HOYA","Criterio_u":"Sin acceso definido"}},{"type":"Feature","id":4,"geometry":{"type":"Point","coordinates":[-73.41026818283035,5.4529809809875474]},"properties":{"FID":4,"COD_MPIO":"15001","X_LONG":-73.410331610200004,"Y_LAT":5.4533379102200001,"direccion_":"XXX VDA LA LAJITA","DIRECC_NOR":" ","Fecha_actu":1669852800000,"VEREDA_V1":"LA LAJITA","VEREDA_V2":"LA LAJITA","Criterio_u":"Acceso ubicado en vía"}},{"type":"Feature","id":5,"geometry":{"type":"Point","coordinates":[-73.418446806374959,5.4527909416486864]},"properties":{"FID":5,"COD_MPIO":"15001","X_LONG":-73.418446806399999,"Y_LAT":5.45279094165,"direccion_":"SAN MATEO VDA LA LAJITA","DIRECC_NOR":" ","Fecha_actu":1669852800000,"VEREDA_V1":"LA LAJITA","VEREDA_V2":"LA LAJITA","Criterio_u":"Acceso ubicado en vía"}},{"type":"Feature","id":6,"geometry":{"type":"Point","coordinates":[-73.410999599651745,5.45394997980776]},"properties":{"FID":6,"COD_MPIO":"15001","X_LONG":-73.410999599700006,"Y_LAT":5.45394997981,"direccion_":"LA CAJITA VDA LA LAJITA","DIRECC_NOR":" ","Fecha_actu":1669852800000,"VEREDA_V1":"LA LAJITA","VEREDA_V2":"LA LAJITA","Criterio_u":"Sin acceso definido"}},{"type":"Feature","id":7,"geometry":{"type":"Point","coordinates":[-73.412694525831682,5.4545095083071828]},"properties":{"FID":7,"COD_MPIO":"15001","X_LONG":-73.412694525800006,"Y_LAT":5.4545095083100001,"direccion_":"CABANA SEGUNDA VDA LA LAJITA","DIRECC_NOR":" ","Fecha_actu":1669852800000,"VEREDA_V1":"LA LAJITA","VEREDA_V2":"LA LAJITA","Criterio_u":"Acceso ubicado en vía"}},{"type":"Feature","id":8,"geometry":{"type":"Point","coordinates":[-73.426726420188118,5.4539800504390428]},"properties":{"FID":8,"COD_MPIO":"15001","X_LONG":-73.426726420199998,"Y_LAT":5.4539800504400002,"direccion_":"XXX VDA LA HOYA","DIRECC_NOR":" ","Fecha_actu":1669852800000,"VEREDA_V1":"LA HOYA","VEREDA_V2":"LA HOYA","Criterio_u":"Acceso ubicado en vía"}},{"type":"Feature","id":9,"geometry":{"type":"Point","coordinates":[-73.435612509809459,5.455063169629625]},"properties":{"FID":9,"COD_MPIO":"15001","X_LONG":-73.435612509799995,"Y_LAT":5.4550631696299998,"direccion_":"LA ESPERANZA VDA LA HOYA","DIRECC_NOR":" ","Fecha_actu":1669852800000,"VEREDA_V1":"LA HOYA","VEREDA_V2":"LA HOYA","Criterio_u":"Sin acceso definido"}},{"type":"Feature","id":10,"geometry":{"type":"Point","coordinates":[-73.419960029931417,5.4473123697700885]},"properties":{"FID":10,"COD_MPIO":"15001","X_LONG":-73.419960029899997,"Y_LAT":5.4473123697699997,"direccion_":"LA ESPERANZA VDA LA LAJITA","DIRECC_NOR":" ","Fecha_actu":1669852800000,"VEREDA_V1":"LA LAJITA","VEREDA_V2":"LA LAJITA","Criterio_u":"Sin acceso definido"}},{"type":"Feature","id":11,"geometry":{"type":"Point","coordinates":[-73.417485735078571,5.4622624809288141]},"properties":{"FID":11,"COD_MPIO":"15001","X_LONG":-73.417485735100001,"Y_LAT":5.4622624809299998,"direccion_":"LA LAJITA VDA LA LAJITA","DIRECC_NOR":" ","Fecha_actu":1669852800000,"VEREDA_V1":"LA LAJITA","VEREDA_V2":"LA LAJITA","Criterio_u":"Acceso ubicado en vía"}},{"type":"Feature","id":12,"geometry":{"type":"Point","coordinates":[-73.434052688780525,5.4626958219546395]},"properties":{"FID":12,"COD_MPIO":"15001","X_LONG":-73.434052688799994,"Y_LAT":5.4626958219499997,"direccion_":"BUENOS AIRES VDA LA HOYA","DIRECC_NOR":" ","Fecha_actu":1669852800000,"VEREDA_V1":"LA HOYA","VEREDA_V2":"LA HOYA","Criterio_u":"Acceso ubicado en vía"}},{"type":"Feature","id":13,"geometry":{"type":"Point","coordinates":[-73.435890549609155,5.4781461899947317]},"properties":{"FID":13,"COD_MPIO":"15001","X_LONG":-73.435890549600003,"Y_LAT":5.4781461899900004,"direccion_":"LA LAJITA VDA LA HOYA","DIRECC_NOR":" ","Fecha_actu":1669852800000,"VEREDA_V1":"LA HOYA","VEREDA_V2":"LA HOYA","Criterio_u":"Sin acceso definido"}},{"type":"Feature","id":14,"geometry":{"type":"Point","coordinates":[-73.434007180387027,5.4822237898960111]},"properties":{"FID":14,"COD_MPIO":"15001","X_LONG":-73.434007180400002,"Y_LAT":5.4822237898999999,"direccion_":"KR DE PIEDRAS VDA LA HOYA","DIRECC_NOR":" ","Fecha_actu":1669852800000,"VEREDA_V1":"LA HOYA","VEREDA_V2":"LA HOYA","Criterio_u":"Sin acceso definido"}},{"type":"Feature","id":15,"geometry":{"type":"Point","coordinates":[-73.431050839924296,5.4713419598635937]},"properties":{"FID":15,"COD_MPIO":"15001","X_LONG":-73.431050839899996,"Y_LAT":5.4713419598600002,"direccion_":"EL RECREO VDA LA HOYA","DIRECC_NOR":" ","Fecha_actu":1669852800000,"VEREDA_V1":"LA HOYA","VEREDA_V2":"LA HOYA","Criterio_u":"Sin acceso definido"}},{"type":"Feature","id":16,"geometry":{"type":"Point","coordinates":[-73.418684724720208,5.4629212343275526]},"properties":{"FID":16,"COD_MPIO":"15001","X_LONG":-73.4186847247,"Y_LAT":5.4629212343300004,"direccion_":"EL REFUGIO VDA LA LAJITA","DIRECC_NOR":" ","Fecha_actu":1669852800000,"VEREDA_V1":"LA LAJITA","VEREDA_V2":"LA LAJITA","Criterio_u":"Acceso ubicado en vía"}},{"type":"Feature","id":17,"geometry":{"type":"Point","coordinates":[-73.389299321106762,5.4807198185648076]},"properties":{"FID":17,"COD_MPIO":"15001","X_LONG":-73.389299321099998,"Y_LAT":5.4807198185599999,"direccion_":"LT 5","DIRECC_NOR":" ","Fecha_actu":1669852800000,"VEREDA_V1":"RUNTA","VEREDA_V2":"RUNTA","Criterio_u":"Acceso ubicado en vía"}},{"type":"Feature","id":18,"geometry":{"type":"Point","coordinates":[-73.425489039387628,5.4826068813025586]},"properties":{"FID":18,"COD_MPIO":"15001","X_LONG":-73.425489039400006,"Y_LAT":5.4826068812999997,"direccion_":"EL ARRAYAN VDA LA HOYA","DIRECC_NOR":" ","Fecha_actu":1669852800000,"VEREDA_V1":"LA HOYA","VEREDA_V2":"LA HOYA","Criterio_u":"Acceso ubicado en vía"}},{"type":"Feature","id":19,"geometry":{"type":"Point","coordinates":[-73.432239015218329,5.4703979037403201]},"properties":{"FID":19,"COD_MPIO":"15001","X_LONG":-73.432239015199997,"Y_LAT":5.4703979037400003,"direccion_":"CA VDA LA HOYA","DIRECC_NOR":" ","Fecha_actu":1669852800000,"VEREDA_V1":"LA HOYA","VEREDA_V2":"LA HOYA","Criterio_u":"Acceso ubicado en vía"}},{"type":"Feature","id":20,"geometry":{"type":"Point","coordinates":[-73.431879948300946,5.4732150282509906]},"properties":{"FID":20,"COD_MPIO":"15001","X_LONG":-73.431879948299994,"Y_LAT":5.4732150282500003,"direccion_":"EL JARDIN VDA LA HOYA LT 7","DIRECC_NOR":" ","Fecha_actu":1669852800000,"VEREDA_V1":"LA HOYA","VEREDA_V2":"LA HOYA","Criterio_u":"Acceso ubicado en vía"}},{"type":"Feature","id":21,"geometry":{"type":"Point","coordinates":[-73.428331850334587,5.4754883498075628]},"properties":{"FID":21,"COD_MPIO":"15001","X_LONG":-73.428331850299998,"Y_LAT":5.47548834981,"direccion_":"EL RECUERDO VDA LA HOYA","DIRECC_NOR":" ","Fecha_actu":1669852800000,"VEREDA_V1":"LA HOYA","VEREDA_V2":"LA HOYA","Criterio_u":"Sin acceso definido"}},{"type":"Feature","id":22,"geometry":{"type":"Point","coordinates":[-73.441491872651739,5.4688189199572435]},"properties":{"FID":22,"COD_MPIO":"15001","X_LONG":-73.441491872699999,"Y_LAT":5.4688189199600004,"direccion_":"EL SALITRE VDA LA HOYA","DIRECC_NOR":" ","Fecha_actu":1669852800000,"VEREDA_V1":"LA HOYA","VEREDA_V2":"LA HOYA","Criterio_u":"Sin acceso definido"}},{"type":"Feature","id":23,"geometry":{"type":"Point","coordinates":[-73.434753700422903,5.4814382797528651]},"properties":{"FID":23,"COD_MPIO":"15001","X_LONG":-73.434753700399995,"Y_LAT":5.4814382797499999,"direccion_":"EL RIO VDA LA HOYA","DIRECC_NOR":" ","Fecha_actu":1669852800000,"VEREDA_V1":"LA HOYA","VEREDA_V2":"LA HOYA","Criterio_u":"Sin acceso definido"}},{"type":"Feature","id":24,"geometry":{"type":"Point","coordinates":[-73.394070146320132,5.4799138155701712]},"properties":{"FID":24,"COD_MPIO":"15001","X_LONG":-73.394070146299995,"Y_LAT":5.4799138155699998,"direccion_":"BUENAVISTA VDA RUNTA","DIRECC_NOR":" ","Fecha_actu":1669852800000,"VEREDA_V1":"RUNTA","VEREDA_V2":"RUNTA","Criterio_u":"Acceso ubicado en vía"}},{"type":"Feature","id":25,"geometry":{"type":"Point","coordinates":[-73.423282330615052,5.4723162646839114]},"properties":{"FID":25,"COD_MPIO":"15001","X_LONG":-73.423282330600003,"Y_LAT":5.4723162646799999,"direccion_":"LAS LOMITAS VDA LA HOYA","DIRECC_NOR":" ","Fecha_actu":1669852800000,"VEREDA_V1":"LA HOYA","VEREDA_V2":"LA HOYA","Criterio_u":"Acceso ubicado en vía"}},{"type":"Feature","id":26,"geometry":{"type":"Point","coordinates":[-73.425979980191869,5.4706017503705198]},"properties":{"FID":26,"COD_MPIO":"15001","X_LONG":-73.425979980199997,"Y_LAT":5.4706017503700002,"direccion_":"SAN ANTONIO VDA LA HOYA","DIRECC_NOR":" ","Fecha_actu":1669852800000,"VEREDA_V1":"LA HOYA","VEREDA_V2":"LA HOYA","Criterio_u":"Sin acceso definido"}},{"type":"Feature","id":27,"geometry":{"type":"Point","coordinates":[-73.423376000402072,5.4706043799881741]},"properties":{"FID":27,"COD_MPIO":"15001","X_LONG":-73.423376000399998,"Y_LAT":5.4706043799900002,"direccion_":"BUENAVISTA VDA LA HOYA","DIRECC_NOR":" ","Fecha_actu":1669852800000,"VEREDA_V1":"LA HOYA","VEREDA_V2":"LA HOYA","Criterio_u":"Sin acceso definido"}},{"type":"Feature","id":28,"geometry":{"type":"Point","coordinates":[-73.424670791224003,5.4606108247298266]},"properties":{"FID":28,"COD_MPIO":"15001","X_LONG":-73.424840306199997,"Y_LAT":5.4605292247400001,"direccion_":"SAN LUIS VDA LA HOYA","DIRECC_NOR":" ","Fecha_actu":1669852800000,"VEREDA_V1":"LA HOYA","VEREDA_V2":"LA HOYA","Criterio_u":"Acceso ubicado en vía"}},{"type":"Feature","id":29,"geometry":{"type":"Point","coordinates":[-73.386026458853962,5.4812372515979177]},"properties":{"FID":29,"COD_MPIO":"15001","X_LONG":-73.386026458900005,"Y_LAT":5.4812372515999996,"direccion_":"EL PARAMO LC 2 VDA RUNTA ABAJO","DIRECC_NOR":" ","Fecha_actu":1669852800000,"VEREDA_V1":"RUNTA","VEREDA_V2":"RUNTA","Criterio_u":"Acceso ubicado en vía"}},{"type":"Feature","id":30,"geometry":{"type":"Point","coordinates":[-73.432045980237774,5.4821426296786626]},"properties":{"FID":30,"COD_MPIO":"15001","X_LONG":-73.432045980200002,"Y_LAT":5.4821426296800002,"direccion_":"EL RUNCHICAL VDA LA HOYA","DIRECC_NOR":" ","Fecha_actu":1669852800000,"VEREDA_V1":"LA HOYA","VEREDA_V2":"LA HOYA","Criterio_u":"Sin acceso definido"}},{"type":"Feature","id":31,"geometry":{"type":"Point","coordinates":[-73.42583838643236,5.4812905013556019]},"properties":{"FID":31,"COD_MPIO":"15001","X_LONG":-73.425838386400002,"Y_LAT":5.4812905013600002,"direccion_":"LA PRADERA VDA LA HOYA","DIRECC_NOR":" ","Fecha_actu":1669852800000,"VEREDA_V1":"LA HOYA","VEREDA_V2":"LA HOYA","Criterio_u":"Acceso ubicado en vía"}},{"type":"Feature","id":32,"geometry":{"type":"Point","coordinates":[-73.436629489259474,5.4744799067223653]},"properties":{"FID":32,"COD_MPIO":"15001","X_LONG":-73.436629489300003,"Y_LAT":5.4744799067200001,"direccion_":"LA PLAYITA VDA LA HOYA LT 6","DIRECC_NOR":" ","Fecha_actu":1669852800000,"VEREDA_V1":"LA HOYA","VEREDA_V2":"LA HOYA","Criterio_u":"Sin acceso definido"}},{"type":"Feature","id":33,"geometry":{"type":"Point","coordinates":[-73.434490492242389,5.4736949568568321]},"properties":{"FID":33,"COD_MPIO":"15001","X_LONG":-73.434490492199998,"Y_LAT":5.4736949568600002,"direccion_":"PAN DE AZUCAR VDA LA HOYA","DIRECC_NOR":" ","Fecha_actu":1669852800000,"VEREDA_V1":"LA HOYA","VEREDA_V2":"LA HOYA","Criterio_u":"Acceso ubicado en vía"}},{"type":"Feature","id":34,"geometry":{"type":"Point","coordinates":[-73.437031168753379,5.4748526972941818]},"properties":{"FID":34,"COD_MPIO":"15001","X_LONG":-73.437031168800004,"Y_LAT":5.4748526972900002,"direccion_":"EL MZO VDA LA HOYA LT 5","DIRECC_NOR":" ","Fecha_actu":1669852800000,"VEREDA_V1":"LA HOYA","VEREDA_V2":"LA HOYA","Criterio_u":"Sin acceso definido"}},{"type":"Feature","id":35,"geometry":{"type":"Point","coordinates":[-73.434280240640533,5.4619048493293576]},"properties":{"FID":35,"COD_MPIO":"15001","X_LONG":-73.434280240600003,"Y_LAT":5.4619048493299998,"direccion_":"LAS DALIAS VDA LA HOYA","DIRECC_NOR":" ","Fecha_actu":1669852800000,"VEREDA_V1":"LA HOYA","VEREDA_V2":"LA HOYA","Criterio_u":"Acceso ubicado en construcción"}},{"type":"Feature","id":36,"geometry":{"type":"Point","coordinates":[-73.418222840111923,5.4620528696442534]},"properties":{"FID":36,"COD_MPIO":"15001","X_LONG":-73.4182228401,"Y_LAT":5.4620528696399999,"direccion_":"LA PUNTILLA VDA LA LAJITA","DIRECC_NOR":" ","Fecha_actu":1669852800000,"VEREDA_V1":"LA LAJITA","VEREDA_V2":"LA LAJITA","Criterio_u":"Acceso ubicado en vía"}},{"type":"Feature","id":37,"geometry":{"type":"Point","coordinates":[-73.430286640116321,5.4678075801557497]},"properties":{"FID":37,"COD_MPIO":"15001","X_LONG":-73.430286640099993,"Y_LAT":5.4678075801599997,"direccion_":"GARAVATOS VDA LA HOYA","DIRECC_NOR":" ","Fecha_actu":1669852800000,"VEREDA_V1":"LA HOYA","VEREDA_V2":"LA HOYA","Criterio_u":"Sin acceso definido"}},{"type":"Feature","id":38,"geometry":{"type":"Point","coordinates":[-73.436918473808475,5.4676026498424903]},"properties":{"FID":38,"COD_MPIO":"15001","X_LONG":-73.436918473800006,"Y_LAT":5.4676026498399999,"direccion_":"EL BOSQUE VDA LA HOYA","DIRECC_NOR":" ","Fecha_actu":1669852800000,"VEREDA_V1":"LA HOYA","VEREDA_V2":"LA HOYA","Criterio_u":"Acceso ubicado en vía"}},{"type":"Feature","id":39,"geometry":{"type":"Point","coordinates":[-73.433515911330232,5.4716930722775032]},"properties":{"FID":39,"COD_MPIO":"15001","X_LONG":-73.433515911300006,"Y_LAT":5.4716930722799999,"direccion_":"BUENAVISTA O LA ESPERANZA VDA LA H","DIRECC_NOR":" ","Fecha_actu":1669852800000,"VEREDA_V1":"LA HOYA","VEREDA_V2":"LA HOYA","Criterio_u":"Sin acceso definido"}},{"type":"Feature","id":40,"geometry":{"type":"Point","coordinates":[-73.431480019787045,5.4718479697081079]},"properties":{"FID":40,"COD_MPIO":"15001","X_LONG":-73.431480019800006,"Y_LAT":5.4718479697099998,"direccion_":"LA CABANA VDA LA HOYA LT 4","DIRECC_NOR":" ","Fecha_actu":1669852800000,"VEREDA_V1":"LA HOYA","VEREDA_V2":"LA HOYA","Criterio_u":"Sin acceso definido"}},{"type":"Feature","id":41,"geometry":{"type":"Point","coordinates":[-73.393042333636743,5.482489811155915]},"properties":{"FID":41,"COD_MPIO":"15001","X_LONG":-73.393042333599993,"Y_LAT":5.4824898111599998,"direccion_":"SAN ISIDRO","DIRECC_NOR":" ","Fecha_actu":1669852800000,"VEREDA_V1":"RUNTA","VEREDA_V2":"RUNTA","Criterio_u":"Acceso ubicado en vía"}},{"type":"Feature","id":42,"geometry":{"type":"Point","coordinates":[-73.442386696288963,5.4676752098430939]},"properties":{"FID":42,"COD_MPIO":"15001","X_LONG":-73.442386696300005,"Y_LAT":5.4676752098400003,"direccion_":"EL RUBI VDA LA HOYA","DIRECC_NOR":" ","Fecha_actu":1669852800000,"VEREDA_V1":"LA HOYA","VEREDA_V2":"LA HOYA","Criterio_u":"Sin acceso definido"}},{"type":"Feature","id":43,"geometry":{"type":"Point","coordinates":[-73.43831616595827,5.4728789507030342]},"properties":{"FID":43,"COD_MPIO":"15001","X_LONG":-73.438316166000007,"Y_LAT":5.4728789507000002,"direccion_":"SAN CAYETANO II VDA LA HOYA","DIRECC_NOR":" ","Fecha_actu":1669852800000,"VEREDA_V1":"LA HOYA","VEREDA_V2":"LA HOYA","Criterio_u":"Acceso ubicado en vía"}},{"type":"Feature","id":44,"geometry":{"type":"Point","coordinates":[-73.432399537908282,5.4723346980878773]},"properties":{"FID":44,"COD_MPIO":"15001","X_LONG":-73.432399537899997,"Y_LAT":5.4723346980900001,"direccion_":"EL ALISO VDA LA HOYA","DIRECC_NOR":" ","Fecha_actu":1669852800000,"VEREDA_V1":"LA HOYA","VEREDA_V2":"LA HOYA","Criterio_u":"Acceso ubicado en construcción"}},{"type":"Feature","id":45,"geometry":{"type":"Point","coordinates":[-73.437664125099275,5.4730388771425282]},"properties":{"FID":45,"COD_MPIO":"15001","X_LONG":-73.4376641251,"Y_LAT":5.4730388771399996,"direccion_":"SAN CAYETANO I VDA LA HOYA","DIRECC_NOR":" ","Fecha_actu":1669852800000,"VEREDA_V1":"LA HOYA","VEREDA_V2":"LA HOYA","Criterio_u":"Acceso ubicado en vía"}},{"type":"Feature","id":46,"geometry":{"type":"Point","coordinates":[-73.427846710157496,5.4723680296609132]},"properties":{"FID":46,"COD_MPIO":"15001","X_LONG":-73.427846710200001,"Y_LAT":5.4723680296600001,"direccion_":"LOS ARRAYANES VDA LA HOYA","DIRECC_NOR":" ","Fecha_actu":1669852800000,"VEREDA_V1":"LA HOYA","VEREDA_V2":"LA HOYA","Criterio_u":"Sin acceso definido"}},{"type":"Feature","id":47,"geometry":{"type":"Point","coordinates":[-73.428651864192148,5.4734251728335153]},"properties":{"FID":47,"COD_MPIO":"15001","X_LONG":-73.428651864200006,"Y_LAT":5.4734251728299999,"direccion_":"SANTAFE VDA LA HOYA","DIRECC_NOR":" ","Fecha_actu":1669852800000,"VEREDA_V1":"LA HOYA","VEREDA_V2":"LA HOYA","Criterio_u":"Acceso ubicado en vía"}},{"type":"Feature","id":48,"geometry":{"type":"Point","coordinates":[-73.430224598586335,5.4749202183934358]},"properties":{"FID":48,"COD_MPIO":"15001","X_LONG":-73.430224598600006,"Y_LAT":5.4749202183900003,"direccion_":"LOS PINOS VDA LA HOYA","DIRECC_NOR":" ","Fecha_actu":1669852800000,"VEREDA_V1":"LA HOYA","VEREDA_V2":"LA HOYA","Criterio_u":"Acceso ubicado en vía"}},{"type":"Feature","id":49,"geometry":{"type":"Point","coordinates":[-73.427775480254184,5.4710304598878565]},"properties":{"FID":49,"COD_MPIO":"15001","X_LONG":-73.427775480299999,"Y_LAT":5.4710304598899997,"direccion_":"MJ VDA LA HOYA","DIRECC_NOR":" ","Fecha_actu":1669852800000,"VEREDA_V1":"LA HOYA","VEREDA_V2":"LA HOYA","Criterio_u":"Sin acceso definido"}},{"type":"Feature","id":50,"geometry":{"type":"Point","coordinates":[-73.421923230172922,5.4710338098624902]},"properties":{"FID":50,"COD_MPIO":"15001","X_LONG":-73.421923230199994,"Y_LAT":5.4710338098599998,"direccion_":"EL FRAILEJON VDA LA LAJITA","DIRECC_NOR":" ","Fecha_actu":1669852800000,"VEREDA_V1":"LA LAJITA","VEREDA_V2":"LA LAJITA","Criterio_u":"Sin acceso definido"}},{"type":"Feature","id":51,"geometry":{"type":"Point","coordinates":[-73.426617069821873,5.4693253003223958]},"properties":{"FID":51,"COD_MPIO":"15001","X_LONG":-73.426617069800002,"Y_LAT":5.4693253003200004,"direccion_":"GARAVITO VDA LA HOYA","DIRECC_NOR":" ","Fecha_actu":1669852800000,"VEREDA_V1":"LA HOYA","VEREDA_V2":"LA HOYA","Criterio_u":"Sin acceso definido"}},{"type":"Feature","id":52,"geometry":{"type":"Point","coordinates":[-73.43294560985197,5.4693296800207918]},"properties":{"FID":52,"COD_MPIO":"15001","X_LONG":-73.432945609900003,"Y_LAT":5.4693296800200004,"direccion_":"ES PTE DE BOYACA VDA LA H","DIRECC_NOR":" ","Fecha_actu":1669852800000,"VEREDA_V1":"LA HOYA","VEREDA_V2":"LA HOYA","Criterio_u":"Acceso ubicado en vía"}},{"type":"Feature","id":53,"geometry":{"type":"Point","coordinates":[-73.420349119815967,5.4699211803182379]},"properties":{"FID":53,"COD_MPIO":"15001","X_LONG":-73.420349119799994,"Y_LAT":5.4699211803200001,"direccion_":"PALO CAIDO VDA LA LAJITA","DIRECC_NOR":" ","Fecha_actu":1669852800000,"VEREDA_V1":"LA LAJITA","VEREDA_V2":"LA LAJITA","Criterio_u":"Sin acceso definido"}},{"type":"Feature","id":54,"geometry":{"type":"Point","coordinates":[-73.425191057121538,5.4737214418910867]},"properties":{"FID":54,"COD_MPIO":"15001","X_LONG":-73.425191057099994,"Y_LAT":5.4737214418900004,"direccion_":"LC 2 VDA LA HOYA","DIRECC_NOR":" ","Fecha_actu":1669852800000,"VEREDA_V1":"LA HOYA","VEREDA_V2":"LA HOYA","Criterio_u":"Acceso ubicado en vía"}},{"type":"Feature","id":55,"geometry":{"type":"Point","coordinates":[-73.438367719594567,5.4757469498619002]},"properties":{"FID":55,"COD_MPIO":"15001","X_LONG":-73.438367719599995,"Y_LAT":5.4757469498600004,"direccion_":"EL RECUERDO VDA LA HOYA LT 1","DIRECC_NOR":" ","Fecha_actu":1669852800000,"VEREDA_V1":"LA HOYA","VEREDA_V2":"LA HOYA","Criterio_u":"Sin acceso definido"}},{"type":"Feature","id":56,"geometry":{"type":"Point","coordinates":[-73.438118569616279,5.4760290797782432]},"properties":{"FID":56,"COD_MPIO":"15001","X_LONG":-73.438118569599993,"Y_LAT":5.47602907978,"direccion_":"PIE DE CUESTA LC 3 VDA LA HOYA","DIRECC_NOR":" ","Fecha_actu":1669852800000,"VEREDA_V1":"LA HOYA","VEREDA_V2":"LA HOYA","Criterio_u":"Sin acceso definido"}},{"type":"Feature","id":57,"geometry":{"type":"Point","coordinates":[-73.444998635978209,5.4686532630377087]},"properties":{"FID":57,"COD_MPIO":"15001","X_LONG":-73.444998635999994,"Y_LAT":5.4686532630400002,"direccion_":"LAS MERCEDES VDA LA HOYA","DIRECC_NOR":" ","Fecha_actu":1669852800000,"VEREDA_V1":"LA HOYA","VEREDA_V2":"LA HOYA","Criterio_u":"Sin acceso definido"}},{"type":"Feature","id":58,"geometry":{"type":"Point","coordinates":[-73.435440402052848,5.457422833297187]},"properties":{"FID":58,"COD_MPIO":"15001","X_LONG":-73.435440402099999,"Y_LAT":5.4574228332999999,"direccion_":"RAQUIRA VDA LA HOYA","DIRECC_NOR":" ","Fecha_actu":1669852800000,"VEREDA_V1":"LA HOYA","VEREDA_V2":"LA HOYA","Criterio_u":"Acceso ubicado en vía"}},{"type":"Feature","id":59,"geometry":{"type":"Point","coordinates":[-73.386109670424901,5.4808358203168837]},"properties":{"FID":59,"COD_MPIO":"15001","X_LONG":-73.386109670400003,"Y_LAT":5.4808358203200003,"direccion_":"EL PARAMO VDA RUNTA","DIRECC_NOR":" ","Fecha_actu":1669852800000,"VEREDA_V1":"RUNTA","VEREDA_V2":"RUNTA","Criterio_u":"Acceso ubicado en vía"}},{"type":"Feature","id":60,"geometry":{"type":"Point","coordinates":[-73.431462852628499,5.4750670686902936]},"properties":{"FID":60,"COD_MPIO":"15001","X_LONG":-73.431462852600006,"Y_LAT":5.4750670686899996,"direccion_":"LOS LAURELES VDA LA HOYA","DIRECC_NOR":" ","Fecha_actu":1669852800000,"VEREDA_V1":"LA HOYA","VEREDA_V2":"LA HOYA","Criterio_u":"Acceso ubicado en vía"}},{"type":"Feature","id":61,"geometry":{"type":"Point","coordinates":[-73.431664007587813,5.4737217377680167]},"properties":{"FID":61,"COD_MPIO":"15001","X_LONG":-73.431664007600006,"Y_LAT":5.47372173777,"direccion_":"LA PRIMAVERA VDA LA HOYA","DIRECC_NOR":" ","Fecha_actu":1669852800000,"VEREDA_V1":"LA HOYA","VEREDA_V2":"LA HOYA","Criterio_u":"Acceso ubicado en vía"}},{"type":"Feature","id":62,"geometry":{"type":"Point","coordinates":[-73.418080417177464,5.4615659362190172]},"properties":{"FID":62,"COD_MPIO":"15001","X_LONG":-73.418080417200002,"Y_LAT":5.4615659362200004,"direccion_":"SAN ISIDRO VDA LA LAJITA","DIRECC_NOR":" ","Fecha_actu":1669852800000,"VEREDA_V1":"LA LAJITA","VEREDA_V2":"LA LAJITA","Criterio_u":"Acceso ubicado en vía"}},{"type":"Feature","id":63,"geometry":{"type":"Point","coordinates":[-73.388161596880138,5.4812655910342301]},"properties":{"FID":63,"COD_MPIO":"15001","X_LONG":-73.388161596900005,"Y_LAT":5.4812655910299997,"direccion_":"DE GASTOS VDA RUNTA","DIRECC_NOR":" ","Fecha_actu":1669852800000,"VEREDA_V1":"RUNTA","VEREDA_V2":"RUNTA","Criterio_u":"Acceso ubicado en vía"}},{"type":"Feature","id":64,"geometry":{"type":"Point","coordinates":[-73.434404880380896,5.4778239701001894]},"properties":{"FID":64,"COD_MPIO":"15001","X_LONG":-73.434404880399995,"Y_LAT":5.4778239701000002,"direccion_":"SAN FRANCISCO VDA LA HOYA","DIRECC_NOR":" ","Fecha_actu":1669852800000,"VEREDA_V1":"LA HOYA","VEREDA_V2":"LA HOYA","Criterio_u":"Sin acceso definido"}},{"type":"Feature","id":65,"geometry":{"type":"Point","coordinates":[-73.43150977565557,5.468607285198118]},"properties":{"FID":65,"COD_MPIO":"15001","X_LONG":-73.431509775699993,"Y_LAT":5.4686072852000001,"direccion_":"LA ESPERANZA 2 VDA LA HOYA","DIRECC_NOR":" ","Fecha_actu":1669852800000,"VEREDA_V1":"LA HOYA","VEREDA_V2":"LA HOYA","Criterio_u":"Sin acceso definido"}},{"type":"Feature","id":66,"geometry":{"type":"Point","coordinates":[-73.440471932633557,5.4688426143952142]},"properties":{"FID":66,"COD_MPIO":"15001","X_LONG":-73.440471932600005,"Y_LAT":5.4688426143999997,"direccion_":"EL PANTANO VDA LA HOYA","DIRECC_NOR":" ","Fecha_actu":1669852800000,"VEREDA_V1":"LA HOYA","VEREDA_V2":"LA HOYA","Criterio_u":"Acceso ubicado en vía"}},{"type":"Feature","id":67,"geometry":{"type":"Point","coordinates":[-73.432490981873286,5.471185956266936]},"properties":{"FID":67,"COD_MPIO":"15001","X_LONG":-73.432490981900003,"Y_LAT":5.4711859562700003,"direccion_":"LA FLORIDA VDA LA HOYA","DIRECC_NOR":" ","Fecha_actu":1669852800000,"VEREDA_V1":"LA HOYA","VEREDA_V2":"LA HOYA","Criterio_u":"Acceso ubicado en vía"}},{"type":"Feature","id":68,"geometry":{"type":"Point","coordinates":[-73.444099277059934,5.4720288629417269]},"properties":{"FID":68,"COD_MPIO":"15001","X_LONG":-73.444099277099994,"Y_LAT":5.4720288629400002,"direccion_":"LA CASCAJERA VDA LA HOYA","DIRECC_NOR":" ","Fecha_actu":1669852800000,"VEREDA_V1":"LA HOYA","VEREDA_V2":"LA HOYA","Criterio_u":"Sin acceso definido"}},{"type":"Feature","id":69,"geometry":{"type":"Point","coordinates":[-73.422266989729735,5.4742941400625682]},"properties":{"FID":69,"COD_MPIO":"15001","X_LONG":-73.422266989700006,"Y_LAT":5.4742941400599996,"direccion_":"MONSERRATE VDA LA HOYA","DIRECC_NOR":" ","Fecha_actu":1669852800000,"VEREDA_V1":"LA HOYA","VEREDA_V2":"LA HOYA","Criterio_u":"Sin acceso definido"}},{"type":"Feature","id":70,"geometry":{"type":"Point","coordinates":[-73.429120794089329,5.4696207725806403]},"properties":{"FID":70,"COD_MPIO":"15001","X_LONG":-73.429120794100001,"Y_LAT":5.4696207725799999,"direccion_":"LA PALMA VDA LA HOYA","DIRECC_NOR":" ","Fecha_actu":1669852800000,"VEREDA_V1":"LA HOYA","VEREDA_V2":"LA HOYA","Criterio_u":"Sin acceso definido"}},{"type":"Feature","id":71,"geometry":{"type":"Point","coordinates":[-73.420881834129318,5.4692042623668726]},"properties":{"FID":71,"COD_MPIO":"15001","X_LONG":-73.420881834100001,"Y_LAT":5.4692042623699999,"direccion_":"EL PLACER VDA LA LAJITA","DIRECC_NOR":" ","Fecha_actu":1669852800000,"VEREDA_V1":"LA LAJITA","VEREDA_V2":"LA LAJITA","Criterio_u":"Sin acceso definido"}},{"type":"Feature","id":72,"geometry":{"type":"Point","coordinates":[-73.43272772030798,5.4681939900606267]},"properties":{"FID":72,"COD_MPIO":"15001","X_LONG":-73.432727720299994,"Y_LAT":5.4681939900599996,"direccion_":"SAN LAZARO VDA LA HOYA","DIRECC_NOR":" ","Fecha_actu":1669852800000,"VEREDA_V1":"LA HOYA","VEREDA_V2":"LA HOYA","Criterio_u":"Acceso ubicado en vía"}},{"type":"Feature","id":73,"geometry":{"type":"Point","coordinates":[-73.432195700271336,5.4794727196903068]},"properties":{"FID":73,"COD_MPIO":"15001","X_LONG":-73.432195700299999,"Y_LAT":5.4794727196900004,"direccion_":"SANTA LUCIA 2 VDA LA HOYA","DIRECC_NOR":" ","Fecha_actu":1669852800000,"VEREDA_V1":"LA HOYA","VEREDA_V2":"LA HOYA","Criterio_u":"Sin acceso definido"}},{"type":"Feature","id":74,"geometry":{"type":"Point","coordinates":[-73.43898343773543,5.4726188973442618]},"properties":{"FID":74,"COD_MPIO":"15001","X_LONG":-73.438983437700003,"Y_LAT":5.4726188973400003,"direccion_":"SAN CAYETANO III VDA LA HOYA","DIRECC_NOR":" ","Fecha_actu":1669852800000,"VEREDA_V1":"LA HOYA","VEREDA_V2":"LA HOYA","Criterio_u":"Acceso ubicado en vía"}},{"type":"Feature","id":75,"geometry":{"type":"Point","coordinates":[-73.42882963228169,5.473584300674986]},"properties":{"FID":75,"COD_MPIO":"15001","X_LONG":-73.428829632299994,"Y_LAT":5.4735843006699998,"direccion_":"EL CARMEN VDA LA HOYA","DIRECC_NOR":" ","Fecha_actu":1669852800000,"VEREDA_V1":"LA HOYA","VEREDA_V2":"LA HOYA","Criterio_u":"Acceso ubicado en vía"}},{"type":"Feature","id":76,"geometry":{"type":"Point","coordinates":[-73.44104828475048,5.4719441531002531]},"properties":{"FID":76,"COD_MPIO":"15001","X_LONG":-73.441048284800004,"Y_LAT":5.4719441530999999,"direccion_":"EL TRIUNFO VDA LA HOYA","DIRECC_NOR":" ","Fecha_actu":1669852800000,"VEREDA_V1":"LA HOYA","VEREDA_V2":"LA HOYA","Criterio_u":"Acceso ubicado en vía"}},{"type":"Feature","id":77,"geometry":{"type":"Point","coordinates":[-73.442859999589245,5.4697526033000372]},"properties":{"FID":77,"COD_MPIO":"15001","X_LONG":-73.442859999600003,"Y_LAT":5.4697526032999999,"direccion_":"VILLA VALENTINA VDA LA HOYA","DIRECC_NOR":" ","Fecha_actu":1669852800000,"VEREDA_V1":"LA HOYA","VEREDA_V2":"LA HOYA","Criterio_u":"Sin acceso definido"}},{"type":"Feature","id":78,"geometry":{"type":"Point","coordinates":[-73.425059360401121,5.4738412198964284]},"properties":{"FID":78,"COD_MPIO":"15001","X_LONG":-73.425059360399999,"Y_LAT":5.4738412198999997,"direccion_":"VIA CARRETEABLE VDA LA HOYA","DIRECC_NOR":" ","Fecha_actu":1669852800000,"VEREDA_V1":"LA HOYA","VEREDA_V2":"LA HOYA","Criterio_u":"Acceso ubicado en vía"}},{"type":"Feature","id":79,"geometry":{"type":"Point","coordinates":[-73.419591340268084,5.4691195804043673]},"properties":{"FID":79,"COD_MPIO":"15001","X_LONG":-73.419591340300002,"Y_LAT":5.4691195804000001,"direccion_":"EL FRESNO VDA LA LAJITA","DIRECC_NOR":" ","Fecha_actu":1669852800000,"VEREDA_V1":"LA LAJITA","VEREDA_V2":"LA LAJITA","Criterio_u":"Sin acceso definido"}},{"type":"Feature","id":80,"geometry":{"type":"Point","coordinates":[-73.433385449378932,5.4705363993354013]},"properties":{"FID":80,"COD_MPIO":"15001","X_LONG":-73.433385449400006,"Y_LAT":5.4705363993400002,"direccion_":"LA ES VDA LA HOYA","DIRECC_NOR":" ","Fecha_actu":1669852800000,"VEREDA_V1":"LA HOYA","VEREDA_V2":"LA HOYA","Criterio_u":"Acceso ubicado en construcción"}},{"type":"Feature","id":81,"geometry":{"type":"Point","coordinates":[-73.432076184867981,5.472384723776031]},"properties":{"FID":81,"COD_MPIO":"15001","X_LONG":-73.432076184899998,"Y_LAT":5.4723847237800003,"direccion_":"VENECIA VDA LA HOYA","DIRECC_NOR":" ","Fecha_actu":1669852800000,"VEREDA_V1":"LA HOYA","VEREDA_V2":"LA HOYA","Criterio_u":"Acceso ubicado en vía"}},{"type":"Feature","id":82,"geometry":{"type":"Point","coordinates":[-73.430868383668951,5.4702399333262974]},"properties":{"FID":82,"COD_MPIO":"15001","X_LONG":-73.430868383700002,"Y_LAT":5.4702399333300002,"direccion_":"EL ROBLE VDA LA HOYA","DIRECC_NOR":" ","Fecha_actu":1669852800000,"VEREDA_V1":"LA HOYA","VEREDA_V2":"LA HOYA","Criterio_u":"Sin acceso definido"}},{"type":"Feature","id":83,"geometry":{"type":"Point","coordinates":[-73.427680939923391,5.4775060696494506]},"properties":{"FID":83,"COD_MPIO":"15001","X_LONG":-73.4276809399,"Y_LAT":5.4775060696500004,"direccion_":"EL TRIANGULO VDA LA HOYA","DIRECC_NOR":" ","Fecha_actu":1669852800000,"VEREDA_V1":"LA HOYA","VEREDA_V2":"LA HOYA","Criterio_u":"Sin acceso definido"}},{"type":"Feature","id":84,"geometry":{"type":"Point","coordinates":[-73.444626461441999,5.4713612359323633]},"properties":{"FID":84,"COD_MPIO":"15001","X_LONG":-73.444626461400006,"Y_LAT":5.4713612359299999,"direccion_":"LA DORADA VDA LA HOYA","DIRECC_NOR":" ","Fecha_actu":1669852800000,"VEREDA_V1":"LA HOYA","VEREDA_V2":"LA HOYA","Criterio_u":"Sin acceso definido"}},{"type":"Feature","id":85,"geometry":{"type":"Point","coordinates":[-73.430786814260046,5.4781764440876941]},"properties":{"FID":85,"COD_MPIO":"15001","X_LONG":-73.430786814300006,"Y_LAT":5.4781764440899998,"direccion_":"SANTA HELENA VDA LA HOYA","DIRECC_NOR":" ","Fecha_actu":1669852800000,"VEREDA_V1":"LA HOYA","VEREDA_V2":"LA HOYA","Criterio_u":"Acceso ubicado en vía"}},{"type":"Feature","id":86,"geometry":{"type":"Point","coordinates":[-73.423960940145207,5.4554171400889686]},"properties":{"FID":86,"COD_MPIO":"15001","X_LONG":-73.423960940100002,"Y_LAT":5.4554171400899998,"direccion_":"LT 11","DIRECC_NOR":" ","Fecha_actu":1669852800000,"VEREDA_V1":"LA HOYA","VEREDA_V2":"LA HOYA","Criterio_u":"Sin acceso definido"}},{"type":"Feature","id":87,"geometry":{"type":"Point","coordinates":[-73.384793820178629,5.4805435199675117]},"properties":{"FID":87,"COD_MPIO":"15001","X_LONG":-73.384793820200002,"Y_LAT":5.4805435199700003,"direccion_":"LC 3 VDA RUNTA","DIRECC_NOR":" ","Fecha_actu":1669852800000,"VEREDA_V1":"RUNTA","VEREDA_V2":"RUNTA","Criterio_u":"Acceso ubicado en vía"}},{"type":"Feature","id":88,"geometry":{"type":"Point","coordinates":[-73.427836831104855,5.453996778728424]},"properties":{"FID":88,"COD_MPIO":"15001","X_LONG":-73.427940954600004,"Y_LAT":5.4538360150200003,"direccion_":"CA DE TEJA VDA LA HOYA","DIRECC_NOR":" ","Fecha_actu":1669852800000,"VEREDA_V1":"LA HOYA","VEREDA_V2":"LA HOYA","Criterio_u":"Acceso ubicado en vía"}},{"type":"Feature","id":89,"geometry":{"type":"Point","coordinates":[-73.43040839033489,5.4762577297104826]},"properties":{"FID":89,"COD_MPIO":"15001","X_LONG":-73.430408390300002,"Y_LAT":5.4762577297100004,"direccion_":"CA LA HOYA","DIRECC_NOR":" ","Fecha_actu":1669852800000,"VEREDA_V1":"LA HOYA","VEREDA_V2":"LA HOYA","Criterio_u":"Sin acceso definido"}},{"type":"Feature","id":90,"geometry":{"type":"Point","coordinates":[-73.411813059824794,5.4542073900590253]},"properties":{"FID":90,"COD_MPIO":"15001","X_LONG":-73.411813059799996,"Y_LAT":5.4542073900599997,"direccion_":"LA CABANA 3 VDA LA LAJITA","DIRECC_NOR":" ","Fecha_actu":1669852800000,"VEREDA_V1":"LA LAJITA","VEREDA_V2":"LA LAJITA","Criterio_u":"Sin acceso definido"}},{"type":"Feature","id":91,"geometry":{"type":"Point","coordinates":[-73.423936683630984,5.4541385289699633]},"properties":{"FID":91,"COD_MPIO":"15001","X_LONG":-73.423779230299999,"Y_LAT":5.4547898701599999,"direccion_":"LC 7 VDA LA HOYA","DIRECC_NOR":" ","Fecha_actu":1669852800000,"VEREDA_V1":"LA HOYA","VEREDA_V2":"LA HOYA","Criterio_u":"Acceso ubicado en vía"}},{"type":"Feature","id":92,"geometry":{"type":"Point","coordinates":[-73.412313786152254,5.4548675580913937]},"properties":{"FID":92,"COD_MPIO":"15001","X_LONG":-73.412313786200002,"Y_LAT":5.4548675580900001,"direccion_":"EL PORVENIR VDA LA LAJITA","DIRECC_NOR":" ","Fecha_actu":1669852800000,"VEREDA_V1":"LA LAJITA","VEREDA_V2":"LA LAJITA","Criterio_u":"Acceso ubicado en vía"}},{"type":"Feature","id":93,"geometry":{"type":"Point","coordinates":[-73.424537679870014,5.4547912101462543]},"properties":{"FID":93,"COD_MPIO":"15001","X_LONG":-73.424537679899998,"Y_LAT":5.4547912101499998,"direccion_":"LT 8","DIRECC_NOR":" ","Fecha_actu":1669852800000,"VEREDA_V1":"LA HOYA","VEREDA_V2":"LA HOYA","Criterio_u":"Sin acceso definido"}},{"type":"Feature","id":94,"geometry":{"type":"Point","coordinates":[-73.423537050094751,5.4530507395999734]},"properties":{"FID":94,"COD_MPIO":"15001","X_LONG":-73.423537050099995,"Y_LAT":5.4530507396000001,"direccion_":"B VDA LA HOYA","DIRECC_NOR":" ","Fecha_actu":1669852800000,"VEREDA_V1":"LA HOYA","VEREDA_V2":"LA HOYA","Criterio_u":"Acceso ubicado en vía"}},{"type":"Feature","id":95,"geometry":{"type":"Point","coordinates":[-73.411713131655688,5.4523209181758716]},"properties":{"FID":95,"COD_MPIO":"15001","X_LONG":-73.412102639699995,"Y_LAT":5.4527837200900002,"direccion_":"EL SALTO VDA LA LAJITA","DIRECC_NOR":" ","Fecha_actu":1669852800000,"VEREDA_V1":"LA LAJITA","VEREDA_V2":"LA LAJITA","Criterio_u":"Acceso ubicado en vía"}},{"type":"Feature","id":96,"geometry":{"type":"Point","coordinates":[-73.429266758554036,5.4538371877360987]},"properties":{"FID":96,"COD_MPIO":"15001","X_LONG":-73.429451012599998,"Y_LAT":5.4536372720399999,"direccion_":"PTE DE BOYACA VDA LA HOYA","DIRECC_NOR":" ","Fecha_actu":1669852800000,"VEREDA_V1":"LA HOYA","VEREDA_V2":"LA HOYA","Criterio_u":"Acceso ubicado en vía"}},{"type":"Feature","id":97,"geometry":{"type":"Point","coordinates":[-73.430649350187309,5.4764506999399032]},"properties":{"FID":97,"COD_MPIO":"15001","X_LONG":-73.4306493502,"Y_LAT":5.47645069994,"direccion_":"LC 3 VDA LA HOYA","DIRECC_NOR":" ","Fecha_actu":1669852800000,"VEREDA_V1":"LA HOYA","VEREDA_V2":"LA HOYA","Criterio_u":"Sin acceso definido"}},{"type":"Feature","id":98,"geometry":{"type":"Point","coordinates":[-73.392290700055696,5.4801386397864462]},"properties":{"FID":98,"COD_MPIO":"15001","X_LONG":-73.392290700100006,"Y_LAT":5.4801386397899998,"direccion_":"LOS ROMERITOS VDA RUNTA","DIRECC_NOR":" ","Fecha_actu":1669852800000,"VEREDA_V1":"RUNTA","VEREDA_V2":"RUNTA","Criterio_u":"Sin acceso definido"}},{"type":"Feature","id":99,"geometry":{"type":"Point","coordinates":[-73.415396457980137,5.4537327575607719]},"properties":{"FID":99,"COD_MPIO":"15001","X_LONG":-73.415396458000004,"Y_LAT":5.4537327575600001,"direccion_":"LA PLAYA VDA LA LAJITA","DIRECC_NOR":" ","Fecha_actu":1669852800000,"VEREDA_V1":"LA LAJITA","VEREDA_V2":"LA LAJITA","Criterio_u":"Acceso ubicado en vía"}},{"type":"Feature","id":100,"geometry":{"type":"Point","coordinates":[-73.421036468058503,5.4553629991031585]},"properties":{"FID":100,"COD_MPIO":"15001","X_LONG":-73.421036468099999,"Y_LAT":5.4553629991000001,"direccion_":"BTS 10 DO 13 FRANJA DE TERREN","DIRECC_NOR":" ","Fecha_actu":1669852800000,"VEREDA_V1":"LA LAJITA","VEREDA_V2":"LA LAJITA","Criterio_u":"Acceso ubicado en vía"}},{"type":"Feature","id":101,"geometry":{"type":"Point","coordinates":[-73.423537849592037,5.4563372697492696]},"properties":{"FID":101,"COD_MPIO":"15001","X_LONG":-73.423537849599995,"Y_LAT":5.4563372697499997,"direccion_":"LETICIA LA MANA VDA LA LAJITA","DIRECC_NOR":" ","Fecha_actu":1669852800000,"VEREDA_V1":"LA LAJITA","VEREDA_V2":"LA LAJITA","Criterio_u":"Acceso ubicado en vía"}},{"type":"Feature","id":102,"geometry":{"type":"Point","coordinates":[-73.426307290249213,5.4543507500870874]},"properties":{"FID":102,"COD_MPIO":"15001","X_LONG":-73.4263072902,"Y_LAT":5.4543507500899997,"direccion_":"LT 2A","DIRECC_NOR":" ","Fecha_actu":1669852800000,"VEREDA_V1":"LA HOYA","VEREDA_V2":"LA HOYA","Criterio_u":"Sin acceso definido"}},{"type":"Feature","id":103,"geometry":{"type":"Point","coordinates":[-73.391580550402068,5.4784496401388196]},"properties":{"FID":103,"COD_MPIO":"15001","X_LONG":-73.391580550399993,"Y_LAT":5.47844964014,"direccion_":"XXX VDA RUNTA","DIRECC_NOR":" ","Fecha_actu":1669852800000,"VEREDA_V1":"RUNTA","VEREDA_V2":"RUNTA","Criterio_u":"Sin acceso definido"}},{"type":"Feature","id":104,"geometry":{"type":"Point","coordinates":[-73.418967321384741,5.4570758937375672]},"properties":{"FID":104,"COD_MPIO":"15001","X_LONG":-73.418967321400004,"Y_LAT":5.4570758937399999,"direccion_":"MJ VDA LA LAJITA","DIRECC_NOR":" ","Fecha_actu":1669852800000,"VEREDA_V1":"LA LAJITA","VEREDA_V2":"LA LAJITA","Criterio_u":"Acceso ubicado en vía"}},{"type":"Feature","id":105,"geometry":{"type":"Point","coordinates":[-73.43113938087771,5.4773923000146851]},"properties":{"FID":105,"COD_MPIO":"15001","X_LONG":-73.431139380900007,"Y_LAT":5.47739230001,"direccion_":"DE TERRENO VDA LA HOYA","DIRECC_NOR":" ","Fecha_actu":1669852800000,"VEREDA_V1":"LA HOYA","VEREDA_V2":"LA HOYA","Criterio_u":"Acceso ubicado en vía"}},{"type":"Feature","id":106,"geometry":{"type":"Point","coordinates":[-73.428921589759511,5.4765074804359415]},"properties":{"FID":106,"COD_MPIO":"15001","X_LONG":-73.428921589799998,"Y_LAT":5.4765074804399996,"direccion_":"LA PLAZUELA VDA LA HOYA","DIRECC_NOR":" ","Fecha_actu":1669852800000,"VEREDA_V1":"LA HOYA","VEREDA_V2":"LA HOYA","Criterio_u":"Sin acceso definido"}},{"type":"Feature","id":107,"geometry":{"type":"Point","coordinates":[-73.433918063867509,5.4794104056657602]},"properties":{"FID":107,"COD_MPIO":"15001","X_LONG":-73.433918063899995,"Y_LAT":5.4794104056700004,"direccion_":"EL CASTILLO VDA LA HOYA","DIRECC_NOR":" ","Fecha_actu":1669852800000,"VEREDA_V1":"LA HOYA","VEREDA_V2":"LA HOYA","Criterio_u":"Sin acceso definido"}},{"type":"Feature","id":108,"geometry":{"type":"Point","coordinates":[-73.426404909858661,5.4785461895550611]},"properties":{"FID":108,"COD_MPIO":"15001","X_LONG":-73.4264049099,"Y_LAT":5.4785461895600003,"direccion_":"APOSENTOS VDA LA HOYA","DIRECC_NOR":" ","Fecha_actu":1669852800000,"VEREDA_V1":"LA HOYA","VEREDA_V2":"LA HOYA","Criterio_u":"Sin acceso definido"}},{"type":"Feature","id":109,"geometry":{"type":"Point","coordinates":[-73.411408630204107,5.4541644195523418]},"properties":{"FID":109,"COD_MPIO":"15001","X_LONG":-73.4114086302,"Y_LAT":5.4541644195499996,"direccion_":"TRES ESQUINAS VDA LA LAJITA","DIRECC_NOR":" ","Fecha_actu":1669852800000,"VEREDA_V1":"LA LAJITA","VEREDA_V2":"LA LAJITA","Criterio_u":"Sin acceso definido"}},{"type":"Feature","id":110,"geometry":{"type":"Point","coordinates":[-73.437247009641737,5.4564384902441816]},"properties":{"FID":110,"COD_MPIO":"15001","X_LONG":-73.4372470096,"Y_LAT":5.45643849024,"direccion_":"EL TOBO VDA LA HOYA","DIRECC_NOR":" ","Fecha_actu":1669852800000,"VEREDA_V1":"LA HOYA","VEREDA_V2":"LA HOYA","Criterio_u":"Sin acceso definido"}},{"type":"Feature","id":111,"geometry":{"type":"Point","coordinates":[-73.428570665303937,5.4791409148214143]},"properties":{"FID":111,"COD_MPIO":"15001","X_LONG":-73.428570665300001,"Y_LAT":5.4791409148200003,"direccion_":"LA PROVIDENCIA VDA LA HOYA","DIRECC_NOR":" ","Fecha_actu":1669852800000,"VEREDA_V1":"LA HOYA","VEREDA_V2":"LA HOYA","Criterio_u":"Acceso ubicado en vía"}},{"type":"Feature","id":112,"geometry":{"type":"Point","coordinates":[-73.436212479921949,5.4779381399332578]},"properties":{"FID":112,"COD_MPIO":"15001","X_LONG":-73.436212479899993,"Y_LAT":5.47793813993,"direccion_":"EL MIRADOR VDA LA HOYA","DIRECC_NOR":" ","Fecha_actu":1669852800000,"VEREDA_V1":"LA HOYA","VEREDA_V2":"LA HOYA","Criterio_u":"Sin acceso definido"}},{"type":"Feature","id":113,"geometry":{"type":"Point","coordinates":[-73.384804370125551,5.4808497795937114]},"properties":{"FID":113,"COD_MPIO":"15001","X_LONG":-73.384804370099999,"Y_LAT":5.4808497795899997,"direccion_":"EL PARAMO LC 4 VDA RUNTA ABAJO","DIRECC_NOR":" ","Fecha_actu":1669852800000,"VEREDA_V1":"RUNTA","VEREDA_V2":"RUNTA","Criterio_u":"Acceso ubicado en vía"}},{"type":"Feature","id":114,"geometry":{"type":"Point","coordinates":[-73.426825660375869,5.4515998498532099]},"properties":{"FID":114,"COD_MPIO":"15001","X_LONG":-73.426825660399999,"Y_LAT":5.45159984985,"direccion_":"LC 4 VDA LA HOYA","DIRECC_NOR":" ","Fecha_actu":1669852800000,"VEREDA_V1":"LA HOYA","VEREDA_V2":"LA HOYA","Criterio_u":"Sin acceso definido"}},{"type":"Feature","id":115,"geometry":{"type":"Point","coordinates":[-73.435605860222211,5.478342789887904]},"properties":{"FID":115,"COD_MPIO":"15001","X_LONG":-73.435605860199999,"Y_LAT":5.4783427898900001,"direccion_":"LA PENITA VDA LA HOYA","DIRECC_NOR":" ","Fecha_actu":1669852800000,"VEREDA_V1":"LA HOYA","VEREDA_V2":"LA HOYA","Criterio_u":"Sin acceso definido"}},{"type":"Feature","id":116,"geometry":{"type":"Point","coordinates":[-73.385425920369869,5.4806158704261065]},"properties":{"FID":116,"COD_MPIO":"15001","X_LONG":-73.385425920399996,"Y_LAT":5.4806158704300003,"direccion_":"LC 1 VDA RUNTA","DIRECC_NOR":" ","Fecha_actu":1669852800000,"VEREDA_V1":"RUNTA","VEREDA_V2":"RUNTA","Criterio_u":"Acceso ubicado en vía"}},{"type":"Feature","id":117,"geometry":{"type":"Point","coordinates":[-73.416672320770942,5.4532637737042364]},"properties":{"FID":117,"COD_MPIO":"15001","X_LONG":-73.416672320800004,"Y_LAT":5.4532637736999998,"direccion_":"EL DIAMANTE VDA LA LAJITA","DIRECC_NOR":" ","Fecha_actu":1669852800000,"VEREDA_V1":"LA LAJITA","VEREDA_V2":"LA LAJITA","Criterio_u":"Acceso ubicado en vía"}},{"type":"Feature","id":118,"geometry":{"type":"Point","coordinates":[-73.427031878518335,5.4545476503538453]},"properties":{"FID":118,"COD_MPIO":"15001","X_LONG":-73.427055059400004,"Y_LAT":5.4543803476699999,"direccion_":"A VDA LA HOYA LT 1","DIRECC_NOR":" ","Fecha_actu":1669852800000,"VEREDA_V1":"LA HOYA","VEREDA_V2":"LA HOYA","Criterio_u":"Acceso ubicado en vía"}},{"type":"Feature","id":119,"geometry":{"type":"Point","coordinates":[-73.415941154860377,5.4536481817182789]},"properties":{"FID":119,"COD_MPIO":"15001","X_LONG":-73.415941154899997,"Y_LAT":5.4536481817200002,"direccion_":"EL TESORITO VDA LA LAJITA","DIRECC_NOR":" ","Fecha_actu":1669852800000,"VEREDA_V1":"LA LAJITA","VEREDA_V2":"LA LAJITA","Criterio_u":"Acceso ubicado en vía"}},{"type":"Feature","id":120,"geometry":{"type":"Point","coordinates":[-73.407458580249227,5.4516850462279649]},"properties":{"FID":120,"COD_MPIO":"15001","X_LONG":-73.4074585802,"Y_LAT":5.4516850462299997,"direccion_":"LA PIEDRA DE LA MESA VDA BARON","DIRECC_NOR":" ","Fecha_actu":1669852800000,"VEREDA_V1":"LA LAJITA","VEREDA_V2":"BARON GALLERO","Criterio_u":"Sin acceso definido"}},{"type":"Feature","id":121,"geometry":{"type":"Point","coordinates":[-73.412310700578303,5.4519202872915002]},"properties":{"FID":121,"COD_MPIO":"15001","X_LONG":-73.412976520000001,"Y_LAT":5.4525284700099999,"direccion_":"POZO AZUL VDA LA LAJITA","DIRECC_NOR":" ","Fecha_actu":1669852800000,"VEREDA_V1":"LA LAJITA","VEREDA_V2":"LA LAJITA","Criterio_u":"Acceso ubicado en vía"}},{"type":"Feature","id":122,"geometry":{"type":"Point","coordinates":[-73.425883470345866,5.4540313396746569]},"properties":{"FID":122,"COD_MPIO":"15001","X_LONG":-73.425883470299993,"Y_LAT":5.4540313396700002,"direccion_":"PD BTS 10 D003B VDA LA HOYA","DIRECC_NOR":" ","Fecha_actu":1669852800000,"VEREDA_V1":"LA HOYA","VEREDA_V2":"LA HOYA","Criterio_u":"Sin acceso definido"}},{"type":"Feature","id":123,"geometry":{"type":"Point","coordinates":[-73.434097750210981,5.4548636298526958]},"properties":{"FID":123,"COD_MPIO":"15001","X_LONG":-73.434097750199996,"Y_LAT":5.4548636298500002,"direccion_":"EL TUNAL VDA LA HOYA","DIRECC_NOR":" ","Fecha_actu":1669852800000,"VEREDA_V1":"LA HOYA","VEREDA_V2":"LA HOYA","Criterio_u":"Sin acceso definido"}},{"type":"Feature","id":124,"geometry":{"type":"Point","coordinates":[-73.42959885390394,5.4782392437461453]},"properties":{"FID":124,"COD_MPIO":"15001","X_LONG":-73.429598853900004,"Y_LAT":5.47823924375,"direccion_":"EL DIAMANTE VDA LA HOYA","DIRECC_NOR":" ","Fecha_actu":1669852800000,"VEREDA_V1":"LA HOYA","VEREDA_V2":"LA HOYA","Criterio_u":"Acceso ubicado en vía"}},{"type":"Feature","id":125,"geometry":{"type":"Point","coordinates":[-73.381408510294477,5.4807235498519731]},"properties":{"FID":125,"COD_MPIO":"15001","X_LONG":-73.381408510300005,"Y_LAT":5.4807235498500004,"direccion_":"LOS ENCENILLOS VDA RUNTA LO 8","DIRECC_NOR":" ","Fecha_actu":1669852800000,"VEREDA_V1":"RUNTA","VEREDA_V2":"RUNTA","Criterio_u":"Sin acceso definido"}},{"type":"Feature","id":126,"geometry":{"type":"Point","coordinates":[-73.379580120226308,5.4814074402012807]},"properties":{"FID":126,"COD_MPIO":"15001","X_LONG":-73.379580120200004,"Y_LAT":5.4814074401999999,"direccion_":"LOS ENCENILLOS VDA RUNTA LO 7","DIRECC_NOR":" ","Fecha_actu":1669852800000,"VEREDA_V1":"RUNTA","VEREDA_V2":"RUNTA","Criterio_u":"Sin acceso definido"}},{"type":"Feature","id":127,"geometry":{"type":"Point","coordinates":[-73.385513545813467,5.4810359167742035]},"properties":{"FID":127,"COD_MPIO":"15001","X_LONG":-73.385513545799995,"Y_LAT":5.4810359167699998,"direccion_":"EL PARAMO VDA RUNTA LT 3","DIRECC_NOR":" ","Fecha_actu":1669852800000,"VEREDA_V1":"RUNTA","VEREDA_V2":"RUNTA","Criterio_u":"Acceso ubicado en vía"}},{"type":"Feature","id":128,"geometry":{"type":"Point","coordinates":[-73.411992069878067,5.4553510902806579]},"properties":{"FID":128,"COD_MPIO":"15001","X_LONG":-73.411992069899995,"Y_LAT":5.4553510902799998,"direccion_":"EL CEREZO VDA LA LAJITA","DIRECC_NOR":" ","Fecha_actu":1669852800000,"VEREDA_V1":"LA LAJITA","VEREDA_V2":"LA LAJITA","Criterio_u":"Acceso ubicado en vía"}},{"type":"Feature","id":129,"geometry":{"type":"Point","coordinates":[-73.417891744808117,5.4524870229577687]},"properties":{"FID":129,"COD_MPIO":"15001","X_LONG":-73.417891744800002,"Y_LAT":5.4524870229599998,"direccion_":"MENGLEDIA VDA LA LAJITA","DIRECC_NOR":" ","Fecha_actu":1669852800000,"VEREDA_V1":"LA LAJITA","VEREDA_V2":"LA LAJITA","Criterio_u":"Acceso ubicado en vía"}},{"type":"Feature","id":130,"geometry":{"type":"Point","coordinates":[-73.436352409935751,5.4776166799658768]},"properties":{"FID":130,"COD_MPIO":"15001","X_LONG":-73.436352409899996,"Y_LAT":5.4776166799699997,"direccion_":"LA RUEDA VOLANTE VDA LA HOYA","DIRECC_NOR":" ","Fecha_actu":1669852800000,"VEREDA_V1":"LA HOYA","VEREDA_V2":"LA HOYA","Criterio_u":"Sin acceso definido"}},{"type":"Feature","id":131,"geometry":{"type":"Point","coordinates":[-73.43121462985124,5.4767965504204881]},"properties":{"FID":131,"COD_MPIO":"15001","X_LONG":-73.431214629899998,"Y_LAT":5.4767965504199996,"direccion_":"BRISAS MOMPOSINAS VDA LA HOYA","DIRECC_NOR":" ","Fecha_actu":1669852800000,"VEREDA_V1":"LA HOYA","VEREDA_V2":"LA HOYA","Criterio_u":"Acceso ubicado en vía"}},{"type":"Feature","id":132,"geometry":{"type":"Point","coordinates":[-73.438261589700573,5.4759071703796849]},"properties":{"FID":132,"COD_MPIO":"15001","X_LONG":-73.438261589700005,"Y_LAT":5.4759071703800002,"direccion_":"PENA LISA VDA LA HOYA LT 2","DIRECC_NOR":" ","Fecha_actu":1669852800000,"VEREDA_V1":"LA HOYA","VEREDA_V2":"LA HOYA","Criterio_u":"Sin acceso definido"}},{"type":"Feature","id":133,"geometry":{"type":"Point","coordinates":[-73.419427299430311,5.4564192510476346]},"properties":{"FID":133,"COD_MPIO":"15001","X_LONG":-73.419427299399999,"Y_LAT":5.4564192510499998,"direccion_":"SAN JOAQUIN VDA LA LAJITA","DIRECC_NOR":" ","Fecha_actu":1669852800000,"VEREDA_V1":"LA LAJITA","VEREDA_V2":"LA LAJITA","Criterio_u":"Acceso ubicado en vía"}},{"type":"Feature","id":134,"geometry":{"type":"Point","coordinates":[-73.42453679223911,5.4531432339730941]},"properties":{"FID":134,"COD_MPIO":"15001","X_LONG":-73.424536792200001,"Y_LAT":5.4531432339699997,"direccion_":"EL PENON VDA LA HOYA","DIRECC_NOR":" ","Fecha_actu":1669852800000,"VEREDA_V1":"LA HOYA","VEREDA_V2":"LA HOYA","Criterio_u":"Acceso ubicado en vía"}},{"type":"Feature","id":135,"geometry":{"type":"Point","coordinates":[-73.427490219797789,5.4508698998260456]},"properties":{"FID":135,"COD_MPIO":"15001","X_LONG":-73.427490219800006,"Y_LAT":5.4508698998299998,"direccion_":"LC 5 VDA LA HOYA","DIRECC_NOR":" ","Fecha_actu":1669852800000,"VEREDA_V1":"LA HOYA","VEREDA_V2":"LA HOYA","Criterio_u":"Acceso ubicado en vía"}},{"type":"Feature","id":136,"geometry":{"type":"Point","coordinates":[-73.428332048185439,5.4801528292896933]},"properties":{"FID":136,"COD_MPIO":"15001","X_LONG":-73.428332048200005,"Y_LAT":5.4801528292899997,"direccion_":"SAN JUANITO VDA LA HOYA","DIRECC_NOR":" ","Fecha_actu":1669852800000,"VEREDA_V1":"LA HOYA","VEREDA_V2":"LA HOYA","Criterio_u":"Acceso ubicado en vía"}},{"type":"Feature","id":137,"geometry":{"type":"Point","coordinates":[-73.42616757967005,5.4536396003873051]},"properties":{"FID":137,"COD_MPIO":"15001","X_LONG":-73.426167579700007,"Y_LAT":5.4536396003899998,"direccion_":"LC VDA LA HOYA","DIRECC_NOR":" ","Fecha_actu":1669852800000,"VEREDA_V1":"LA HOYA","VEREDA_V2":"LA HOYA","Criterio_u":"Acceso ubicado en vía"}},{"type":"Feature","id":138,"geometry":{"type":"Point","coordinates":[-73.423057893107227,5.4562070443196831]},"properties":{"FID":138,"COD_MPIO":"15001","X_LONG":-73.423057893099994,"Y_LAT":5.4562070443200001,"direccion_":"LA PLANADA VDA LA LAJITA","DIRECC_NOR":" ","Fecha_actu":1669852800000,"VEREDA_V1":"LA LAJITA","VEREDA_V2":"LA LAJITA","Criterio_u":"Acceso ubicado en vía"}},{"type":"Feature","id":139,"geometry":{"type":"Point","coordinates":[-73.384308899436121,5.4809734201872402]},"properties":{"FID":139,"COD_MPIO":"15001","X_LONG":-73.384308899399997,"Y_LAT":5.4809734201899998,"direccion_":"EL PARAMO LC 1 VDA RUNTA ABAJO","DIRECC_NOR":" ","Fecha_actu":1669852800000,"VEREDA_V1":"RUNTA","VEREDA_V2":"RUNTA","Criterio_u":"Acceso ubicado en vía"}},{"type":"Feature","id":140,"geometry":{"type":"Point","coordinates":[-73.386568759040983,5.481335619443314]},"properties":{"FID":140,"COD_MPIO":"15001","X_LONG":-73.386568758999999,"Y_LAT":5.4813356194400003,"direccion_":"EL PARAMO VDA RUNTA LT 5","DIRECC_NOR":" ","Fecha_actu":1669852800000,"VEREDA_V1":"RUNTA","VEREDA_V2":"RUNTA","Criterio_u":"Acceso ubicado en vía"}},{"type":"Feature","id":141,"geometry":{"type":"Point","coordinates":[-73.426879516276642,5.4811287771713637]},"properties":{"FID":141,"COD_MPIO":"15001","X_LONG":-73.426879516300005,"Y_LAT":5.4811287771700004,"direccion_":"BETHANIA VDA LA HOYA","DIRECC_NOR":" ","Fecha_actu":1669852800000,"VEREDA_V1":"LA HOYA","VEREDA_V2":"LA HOYA","Criterio_u":"Acceso ubicado en vía"}},{"type":"Feature","id":142,"geometry":{"type":"Point","coordinates":[-73.418979961356115,5.4526401379320646]},"properties":{"FID":142,"COD_MPIO":"15001","X_LONG":-73.418979961399998,"Y_LAT":5.4526401379299996,"direccion_":"TINJACA VDA LA LAJITA","DIRECC_NOR":" ","Fecha_actu":1669852800000,"VEREDA_V1":"LA LAJITA","VEREDA_V2":"LA LAJITA","Criterio_u":"Acceso ubicado en vía"}},{"type":"Feature","id":143,"geometry":{"type":"Point","coordinates":[-73.4172037589463,5.4531019766749296]},"properties":{"FID":143,"COD_MPIO":"15001","X_LONG":-73.417203758900001,"Y_LAT":5.4531019766700002,"direccion_":"EL RECUERDO VDA LA LAJITA","DIRECC_NOR":" ","Fecha_actu":1669852800000,"VEREDA_V1":"LA LAJITA","VEREDA_V2":"LA LAJITA","Criterio_u":"Acceso ubicado en vía"}},{"type":"Feature","id":144,"geometry":{"type":"Point","coordinates":[-73.418613010082311,5.4536645197018743]},"properties":{"FID":144,"COD_MPIO":"15001","X_LONG":-73.418613010100003,"Y_LAT":5.4536645197000002,"direccion_":"LA ISLA VDA LA LAJITA","DIRECC_NOR":" ","Fecha_actu":1669852800000,"VEREDA_V1":"LA LAJITA","VEREDA_V2":"LA LAJITA","Criterio_u":"Acceso ubicado en vía"}},{"type":"Feature","id":145,"geometry":{"type":"Point","coordinates":[-73.424347901334556,5.4561407148221974]},"properties":{"FID":145,"COD_MPIO":"15001","X_LONG":-73.424263455900004,"Y_LAT":5.4560407380899996,"direccion_":"LT 12","DIRECC_NOR":" ","Fecha_actu":1669852800000,"VEREDA_V1":"LA HOYA","VEREDA_V2":"LA HOYA","Criterio_u":"Acceso ubicado en vía"}},{"type":"Feature","id":146,"geometry":{"type":"Point","coordinates":[-73.385779896225188,5.4777246013093759]},"properties":{"FID":146,"COD_MPIO":"15001","X_LONG":-73.385779896200006,"Y_LAT":5.4777246013100003,"direccion_":"MJ VDA RUNTA","DIRECC_NOR":" ","Fecha_actu":1669852800000,"VEREDA_V1":"RUNTA","VEREDA_V2":"RUNTA","Criterio_u":"Sin acceso definido"}},{"type":"Feature","id":147,"geometry":{"type":"Point","coordinates":[-73.390595679447017,5.4792507508215635]},"properties":{"FID":147,"COD_MPIO":"15001","X_LONG":-73.390595679399993,"Y_LAT":5.4792507508200003,"direccion_":"LT 6","DIRECC_NOR":" ","Fecha_actu":1669852800000,"VEREDA_V1":"RUNTA","VEREDA_V2":"RUNTA","Criterio_u":"Acceso ubicado en vía"}},{"type":"Feature","id":148,"geometry":{"type":"Point","coordinates":[-73.431748513283196,5.476482702314911]},"properties":{"FID":148,"COD_MPIO":"15001","X_LONG":-73.431748513299993,"Y_LAT":5.4764827023100002,"direccion_":"SANTA ELENA VDA LA HOYA","DIRECC_NOR":" ","Fecha_actu":1669852800000,"VEREDA_V1":"LA HOYA","VEREDA_V2":"LA HOYA","Criterio_u":"Acceso ubicado en vía"}},{"type":"Feature","id":149,"geometry":{"type":"Point","coordinates":[-73.434395870073331,5.4817883201748714]},"properties":{"FID":149,"COD_MPIO":"15001","X_LONG":-73.434395870100005,"Y_LAT":5.4817883201699997,"direccion_":"SAN JORGE VDA LA HOYA","DIRECC_NOR":" ","Fecha_actu":1669852800000,"VEREDA_V1":"LA HOYA","VEREDA_V2":"LA HOYA","Criterio_u":"Sin acceso definido"}},{"type":"Feature","id":150,"geometry":{"type":"Point","coordinates":[-73.382799669768929,5.479895630379076]},"properties":{"FID":150,"COD_MPIO":"15001","X_LONG":-73.382799669799994,"Y_LAT":5.4798956303799997,"direccion_":"LOS ENCENILLOS VDA RUNTA LO 9","DIRECC_NOR":" ","Fecha_actu":1669852800000,"VEREDA_V1":"RUNTA","VEREDA_V2":"RUNTA","Criterio_u":"Sin acceso definido"}},{"type":"Feature","id":151,"geometry":{"type":"Point","coordinates":[-73.438022110132238,5.4761880502383633]},"properties":{"FID":151,"COD_MPIO":"15001","X_LONG":-73.438022110099993,"Y_LAT":5.4761880502400002,"direccion_":"SANTA ISABEL LC 4 VDA LA HOYA","DIRECC_NOR":" ","Fecha_actu":1669852800000,"VEREDA_V1":"LA HOYA","VEREDA_V2":"LA HOYA","Criterio_u":"Sin acceso definido"}},{"type":"Feature","id":152,"geometry":{"type":"Point","coordinates":[-73.39438405108308,5.4779351487881627]},"properties":{"FID":152,"COD_MPIO":"15001","X_LONG":-73.394384051100005,"Y_LAT":5.4779351487900003,"direccion_":"LA CIRAGUATA VDA RUNTA","DIRECC_NOR":" ","Fecha_actu":1669852800000,"VEREDA_V1":"RUNTA","VEREDA_V2":"RUNTA","Criterio_u":"Acceso ubicado en vía"}},{"type":"Feature","id":153,"geometry":{"type":"Point","coordinates":[-73.385749339960057,5.4875738603454352]},"properties":{"FID":153,"COD_MPIO":"15001","X_LONG":-73.385749340000004,"Y_LAT":5.4875738603500004,"direccion_":"LA CANADITA VDA RUNTA","DIRECC_NOR":" ","Fecha_actu":1669852800000,"VEREDA_V1":"RUNTA","VEREDA_V2":"RUNTA","Criterio_u":"Acceso ubicado en vía"}},{"type":"Feature","id":154,"geometry":{"type":"Point","coordinates":[-73.382808379702908,5.4875938801534971]},"properties":{"FID":154,"COD_MPIO":"15001","X_LONG":-73.382808379699995,"Y_LAT":5.4875938801500004,"direccion_":"EL RECUERDO VDA RUNTA","DIRECC_NOR":" ","Fecha_actu":1669852800000,"VEREDA_V1":"RUNTA","VEREDA_V2":"RUNTA","Criterio_u":"Sin acceso definido"}},{"type":"Feature","id":155,"geometry":{"type":"Point","coordinates":[-73.380370480413319,5.4911283399010244]},"properties":{"FID":155,"COD_MPIO":"15001","X_LONG":-73.380370480400003,"Y_LAT":5.4911283399000004,"direccion_":"SANTA ELENA VDA RUNTA","DIRECC_NOR":" ","Fecha_actu":1669852800000,"VEREDA_V1":"RUNTA","VEREDA_V2":"RUNTA","Criterio_u":"Acceso ubicado en vía"}},{"type":"Feature","id":156,"geometry":{"type":"Point","coordinates":[-73.388004541076668,5.4840606057124432]},"properties":{"FID":156,"COD_MPIO":"15001","X_LONG":-73.387801330299993,"Y_LAT":5.4839779697099997,"direccion_":"LA SALVIA VDA RUNTA","DIRECC_NOR":" ","Fecha_actu":1669852800000,"VEREDA_V1":"RUNTA","VEREDA_V2":"RUNTA","Criterio_u":"Acceso ubicado en vía"}},{"type":"Feature","id":157,"geometry":{"type":"Point","coordinates":[-73.380250580100153,5.4858142603198985]},"properties":{"FID":157,"COD_MPIO":"15001","X_LONG":-73.380250580099997,"Y_LAT":5.4858142603199997,"direccion_":"LOS ENCENILLOS VDA RUNTA LO 1","DIRECC_NOR":" ","Fecha_actu":1669852800000,"VEREDA_V1":"RUNTA","VEREDA_V2":"RUNTA","Criterio_u":"Sin acceso definido"}},{"type":"Feature","id":158,"geometry":{"type":"Point","coordinates":[-73.358979137876872,5.51022083632256]},"properties":{"FID":158,"COD_MPIO":"15001","X_LONG":-73.358913157299995,"Y_LAT":5.5099933941800003,"direccion_":"DE TERRENO VDA RUNTA","DIRECC_NOR":" ","Fecha_actu":1669852800000,"VEREDA_V1":"RUNTA","VEREDA_V2":"LA CABAR?n??A-RUNTA","Criterio_u":"Acceso ubicado en vía"}},{"type":"Feature","id":159,"geometry":{"type":"Point","coordinates":[-73.379999469599795,5.5105387601557254]},"properties":{"FID":159,"COD_MPIO":"15001","X_LONG":-73.379999469599994,"Y_LAT":5.5105387601600002,"direccion_":"LAS DELICIAS VDA RUNTA","DIRECC_NOR":" ","Fecha_actu":1669852800000,"VEREDA_V1":"RUNTA","VEREDA_V2":"RUNTA PARTE ALTA","Criterio_u":"Sin acceso definido"}},{"type":"Feature","id":160,"geometry":{"type":"Point","coordinates":[-73.426002823871158,5.4839252010872315]},"properties":{"FID":160,"COD_MPIO":"15001","X_LONG":-73.426002823900006,"Y_LAT":5.4839252010899999,"direccion_":"EL GUAMO VDA LA HOYA","DIRECC_NOR":" ","Fecha_actu":1669852800000,"VEREDA_V1":"LA HOYA","VEREDA_V2":"LA HOYA","Criterio_u":"Acceso ubicado en vía"}},{"type":"Feature","id":161,"geometry":{"type":"Point","coordinates":[-73.380922110167205,5.4928154698581011]},"properties":{"FID":161,"COD_MPIO":"15001","X_LONG":-73.380922110200004,"Y_LAT":5.49281546986,"direccion_":"EL ESPINO VDA RUNTA","DIRECC_NOR":" ","Fecha_actu":1669852800000,"VEREDA_V1":"RUNTA","VEREDA_V2":"RUNTA","Criterio_u":"Acceso ubicado en vía"}},{"type":"Feature","id":162,"geometry":{"type":"Point","coordinates":[-73.38296333019349,5.4928164995818634]},"properties":{"FID":162,"COD_MPIO":"15001","X_LONG":-73.382963330199999,"Y_LAT":5.49281649958,"direccion_":"SANTA ROSITA VDA RUNTA","DIRECC_NOR":" ","Fecha_actu":1669852800000,"VEREDA_V1":"RUNTA","VEREDA_V2":"RUNTA","Criterio_u":"Sin acceso definido"}},{"type":"Feature","id":163,"geometry":{"type":"Point","coordinates":[-73.356128468653878,5.5088803644373456]},"properties":{"FID":163,"COD_MPIO":"15001","X_LONG":-73.356128468700007,"Y_LAT":5.5088803644400004,"direccion_":"LA ESPERANZA VDA RUNTA","DIRECC_NOR":" ","Fecha_actu":1669852800000,"VEREDA_V1":"RUNTA","VEREDA_V2":"LA CABAR?n??A-RUNTA","Criterio_u":"Sin acceso definido"}},{"type":"Feature","id":164,"geometry":{"type":"Point","coordinates":[-73.353143064800577,5.5135908235577062]},"properties":{"FID":164,"COD_MPIO":"15001","X_LONG":-73.352853689900002,"Y_LAT":5.5138757503700004,"direccion_":"VIAS VDA RUNTA","DIRECC_NOR":" ","Fecha_actu":1669852800000,"VEREDA_V1":"RUNTA","VEREDA_V2":"LA CABAR?n??A-RUNTA","Criterio_u":"Acceso ubicado en vía"}},{"type":"Feature","id":165,"geometry":{"type":"Point","coordinates":[-73.428652890318574,5.485454179866565]},"properties":{"FID":165,"COD_MPIO":"15001","X_LONG":-73.4286528903,"Y_LAT":5.4854541798699996,"direccion_":"EL PORVENIR UNO VDA LA HOYA","DIRECC_NOR":" ","Fecha_actu":1669852800000,"VEREDA_V1":"LA HOYA","VEREDA_V2":"LA HOYA","Criterio_u":"Sin acceso definido"}},{"type":"Feature","id":166,"geometry":{"type":"Point","coordinates":[-73.372252994579981,5.4918049259566146]},"properties":{"FID":166,"COD_MPIO":"15001","X_LONG":-73.372276571200004,"Y_LAT":5.49198980229,"direccion_":"LC DE TERRENO VDA RUNTA","DIRECC_NOR":" ","Fecha_actu":1669852800000,"VEREDA_V1":"RUNTA","VEREDA_V2":"LA CABAR?n??A-RUNTA","Criterio_u":"Acceso ubicado en vía"}},{"type":"Feature","id":167,"geometry":{"type":"Point","coordinates":[-73.386248650754567,5.4903725622439765]},"properties":{"FID":167,"COD_MPIO":"15001","X_LONG":-73.386248650799999,"Y_LAT":5.4903725622400001,"direccion_":"EL MORAL VDA RUNTA","DIRECC_NOR":" ","Fecha_actu":1669852800000,"VEREDA_V1":"RUNTA","VEREDA_V2":"RUNTA PARTE ALTA","Criterio_u":"Acceso ubicado en vía"}},{"type":"Feature","id":168,"geometry":{"type":"Point","coordinates":[-73.384149269772934,5.4879052398350154]},"properties":{"FID":168,"COD_MPIO":"15001","X_LONG":-73.384149269800005,"Y_LAT":5.4879052398399999,"direccion_":"MJ VDA RUNTA BAJO","DIRECC_NOR":" ","Fecha_actu":1669852800000,"VEREDA_V1":"RUNTA","VEREDA_V2":"RUNTA","Criterio_u":"Acceso ubicado en vía"}},{"type":"Feature","id":169,"geometry":{"type":"Point","coordinates":[-73.354569046923928,5.5130732223513519]},"properties":{"FID":169,"COD_MPIO":"15001","X_LONG":-73.354449405599993,"Y_LAT":5.5128634446899998,"direccion_":"LC 11 VDA RUNTA","DIRECC_NOR":" ","Fecha_actu":1669852800000,"VEREDA_V1":"RUNTA","VEREDA_V2":"LA CABAR?n??A-RUNTA","Criterio_u":"Acceso ubicado en vía"}},{"type":"Feature","id":170,"geometry":{"type":"Point","coordinates":[-73.383420739775261,5.4933665204486033]},"properties":{"FID":170,"COD_MPIO":"15001","X_LONG":-73.383420739800002,"Y_LAT":5.4933665204500004,"direccion_":"LA PLANADA VDA RUNTA","DIRECC_NOR":" ","Fecha_actu":1669852800000,"VEREDA_V1":"RUNTA","VEREDA_V2":"RUNTA","Criterio_u":"Sin acceso definido"}},{"type":"Feature","id":171,"geometry":{"type":"Point","coordinates":[-73.433653860137497,5.4827773001323408]},"properties":{"FID":171,"COD_MPIO":"15001","X_LONG":-73.433653860099994,"Y_LAT":5.4827773001300004,"direccion_":"EL PORVENIR VDA LA HOYA","DIRECC_NOR":" ","Fecha_actu":1669852800000,"VEREDA_V1":"LA HOYA","VEREDA_V2":"LA HOYA","Criterio_u":"Sin acceso definido"}},{"type":"Feature","id":172,"geometry":{"type":"Point","coordinates":[-73.387185086922159,5.4910408493557838]},"properties":{"FID":172,"COD_MPIO":"15001","X_LONG":-73.387185086900004,"Y_LAT":5.49104084936,"direccion_":"LAS MANITAS VDA RUNTA","DIRECC_NOR":" ","Fecha_actu":1669852800000,"VEREDA_V1":"RUNTA","VEREDA_V2":"RUNTA PARTE ALTA","Criterio_u":"Acceso ubicado en vía"}},{"type":"Feature","id":173,"geometry":{"type":"Point","coordinates":[-73.380956475960545,5.492056691163441]},"properties":{"FID":173,"COD_MPIO":"15001","X_LONG":-73.380956475999994,"Y_LAT":5.4920566911600002,"direccion_":"VILLA SILVIA VDA RUNTA","DIRECC_NOR":" ","Fecha_actu":1669852800000,"VEREDA_V1":"RUNTA","VEREDA_V2":"RUNTA","Criterio_u":"Acceso ubicado en vía"}},{"type":"Feature","id":174,"geometry":{"type":"Point","coordinates":[-73.379642390184131,5.4918444700463169]},"properties":{"FID":174,"COD_MPIO":"15001","X_LONG":-73.379642390200004,"Y_LAT":5.4918444700500002,"direccion_":"LA ESMERALDA VDA RUNTA","DIRECC_NOR":" ","Fecha_actu":1669852800000,"VEREDA_V1":"RUNTA","VEREDA_V2":"RUNTA","Criterio_u":"Sin acceso definido"}},{"type":"Feature","id":175,"geometry":{"type":"Point","coordinates":[-73.42946455004892,5.4849172396389463]},"properties":{"FID":175,"COD_MPIO":"15001","X_LONG":-73.429464550000006,"Y_LAT":5.4849172396399997,"direccion_":"DOS VDA LA HOYA","DIRECC_NOR":" ","Fecha_actu":1669852800000,"VEREDA_V1":"LA HOYA","VEREDA_V2":"LA HOYA","Criterio_u":"Sin acceso definido"}},{"type":"Feature","id":176,"geometry":{"type":"Point","coordinates":[-73.378343046094642,5.508793183258831]},"properties":{"FID":176,"COD_MPIO":"15001","X_LONG":-73.378343046099999,"Y_LAT":5.5087931832599999,"direccion_":"LOS RAMIREZ VDA RUNTA","DIRECC_NOR":" ","Fecha_actu":1669852800000,"VEREDA_V1":"RUNTA","VEREDA_V2":"RUNTA PARTE ALTA","Criterio_u":"Acceso ubicado en vía"}},{"type":"Feature","id":177,"geometry":{"type":"Point","coordinates":[-73.349843377569755,5.5098644988476053]},"properties":{"FID":177,"COD_MPIO":"15001","X_LONG":-73.349869480400002,"Y_LAT":5.5097727104400001,"direccion_":"EL MIRADOR VDA RUNTA","DIRECC_NOR":" ","Fecha_actu":1669852800000,"VEREDA_V1":"RUNTA","VEREDA_V2":"LA CABAR?n??A-RUNTA","Criterio_u":"Acceso ubicado en vía"}},{"type":"Feature","id":178,"geometry":{"type":"Point","coordinates":[-73.382932499635103,5.487562760013418]},"properties":{"FID":178,"COD_MPIO":"15001","X_LONG":-73.382932499600003,"Y_LAT":5.4875627600100003,"direccion_":"EL RANCHITO VDA RUNTA","DIRECC_NOR":" ","Fecha_actu":1669852800000,"VEREDA_V1":"RUNTA","VEREDA_V2":"RUNTA","Criterio_u":"Sin acceso definido"}},{"type":"Feature","id":179,"geometry":{"type":"Point","coordinates":[-73.377870359729286,5.4910741197748507]},"properties":{"FID":179,"COD_MPIO":"15001","X_LONG":-73.377870359699997,"Y_LAT":5.4910741197700004,"direccion_":"LC 6 VDA RUNTA","DIRECC_NOR":" ","Fecha_actu":1669852800000,"VEREDA_V1":"RUNTA","VEREDA_V2":"RUNTA","Criterio_u":"Sin acceso definido"}},{"type":"Feature","id":180,"geometry":{"type":"Point","coordinates":[-73.379888760357971,5.4910798997176471]},"properties":{"FID":180,"COD_MPIO":"15001","X_LONG":-73.379888760399993,"Y_LAT":5.4910798997199999,"direccion_":"SAN ISIDRO VDA RUNTA","DIRECC_NOR":" ","Fecha_actu":1669852800000,"VEREDA_V1":"RUNTA","VEREDA_V2":"RUNTA","Criterio_u":"Sin acceso definido"}},{"type":"Feature","id":181,"geometry":{"type":"Point","coordinates":[-73.377695550409271,5.4916856102028078]},"properties":{"FID":181,"COD_MPIO":"15001","X_LONG":-73.377695550400006,"Y_LAT":5.4916856102000002,"direccion_":"LC 5 VDA RUNTA","DIRECC_NOR":" ","Fecha_actu":1669852800000,"VEREDA_V1":"RUNTA","VEREDA_V2":"RUNTA","Criterio_u":"Sin acceso definido"}},{"type":"Feature","id":182,"geometry":{"type":"Point","coordinates":[-73.386622739947427,5.4838701203098594]},"properties":{"FID":182,"COD_MPIO":"15001","X_LONG":-73.386622739900005,"Y_LAT":5.4838701203099998,"direccion_":"LAS BRISAS VDA RUNTA","DIRECC_NOR":" ","Fecha_actu":1669852800000,"VEREDA_V1":"RUNTA","VEREDA_V2":"RUNTA","Criterio_u":"Sin acceso definido"}},{"type":"Feature","id":183,"geometry":{"type":"Point","coordinates":[-73.43075413019892,5.4838784201530189]},"properties":{"FID":183,"COD_MPIO":"15001","X_LONG":-73.4307541302,"Y_LAT":5.4838784201499999,"direccion_":"DE TERRENO 4 VDA LA HOYA","DIRECC_NOR":" ","Fecha_actu":1669852800000,"VEREDA_V1":"LA HOYA","VEREDA_V2":"LA HOYA","Criterio_u":"Sin acceso definido"}},{"type":"Feature","id":184,"geometry":{"type":"Point","coordinates":[-73.387771509647393,5.4847240301899092]},"properties":{"FID":184,"COD_MPIO":"15001","X_LONG":-73.3877715096,"Y_LAT":5.4847240301899998,"direccion_":"LAS SALVIAS VDA RUNTA","DIRECC_NOR":" ","Fecha_actu":1669852800000,"VEREDA_V1":"RUNTA","VEREDA_V2":"RUNTA","Criterio_u":"Acceso ubicado en vía"}},{"type":"Feature","id":185,"geometry":{"type":"Point","coordinates":[-73.390671960842269,5.48495592397677]},"properties":{"FID":185,"COD_MPIO":"15001","X_LONG":-73.390671960800006,"Y_LAT":5.4849559239800003,"direccion_":"EL ALTO DEL PORTACHUELO VDA RUNTA","DIRECC_NOR":" ","Fecha_actu":1669852800000,"VEREDA_V1":"RUNTA","VEREDA_V2":"RUNTA PARTE ALTA","Criterio_u":"Acceso ubicado en vía"}},{"type":"Feature","id":186,"geometry":{"type":"Point","coordinates":[-73.386680114895341,5.4895121106953866]},"properties":{"FID":186,"COD_MPIO":"15001","X_LONG":-73.386680114900003,"Y_LAT":5.4895121106999998,"direccion_":"LA ARENERA VDA RUNTA","DIRECC_NOR":" ","Fecha_actu":1669852800000,"VEREDA_V1":"RUNTA","VEREDA_V2":"RUNTA PARTE ALTA","Criterio_u":"Acceso ubicado en construcción"}},{"type":"Feature","id":187,"geometry":{"type":"Point","coordinates":[-73.376007590377981,5.5090819843461531]},"properties":{"FID":187,"COD_MPIO":"15001","X_LONG":-73.376007590399993,"Y_LAT":5.5090819843499998,"direccion_":"ES RUNTA VDA RUNTA","DIRECC_NOR":" ","Fecha_actu":1669852800000,"VEREDA_V1":"RUNTA","VEREDA_V2":"RUNTA PARTE ALTA","Criterio_u":"Sin acceso definido"}},{"type":"Feature","id":188,"geometry":{"type":"Point","coordinates":[-73.424616920034794,5.4865929913735272]},"properties":{"FID":188,"COD_MPIO":"15001","X_LONG":-73.425854239700001,"Y_LAT":5.4883633104199996,"direccion_":"LA HOYA VDA LA HOYA","DIRECC_NOR":" ","Fecha_actu":1669852800000,"VEREDA_V1":"LA HOYA","VEREDA_V2":"LA HOYA","Criterio_u":"Acceso ubicado en vía"}},{"type":"Feature","id":189,"geometry":{"type":"Point","coordinates":[-73.382575650445858,5.4886725557938689]},"properties":{"FID":189,"COD_MPIO":"15001","X_LONG":-73.3825756504,"Y_LAT":5.48867255579,"direccion_":"EL LAUREL VDA RUNTA","DIRECC_NOR":" ","Fecha_actu":1669852800000,"VEREDA_V1":"RUNTA","VEREDA_V2":"RUNTA","Criterio_u":"Acceso ubicado en vía"}},{"type":"Feature","id":190,"geometry":{"type":"Point","coordinates":[-73.383429003645574,5.4899844607143109]},"properties":{"FID":190,"COD_MPIO":"15001","X_LONG":-73.3834290036,"Y_LAT":5.4899844607099997,"direccion_":"LOS JOVALITOS VDA RUNTA","DIRECC_NOR":" ","Fecha_actu":1669852800000,"VEREDA_V1":"RUNTA","VEREDA_V2":"RUNTA","Criterio_u":"Acceso ubicado en vía"}},{"type":"Feature","id":191,"geometry":{"type":"Point","coordinates":[-73.353373496289805,5.5076535866437553]},"properties":{"FID":191,"COD_MPIO":"15001","X_LONG":-73.353506836099996,"Y_LAT":5.5077061268399996,"direccion_":"LA PROVIDENCIA VDA RUNTA","DIRECC_NOR":" ","Fecha_actu":1669852800000,"VEREDA_V1":"RUNTA","VEREDA_V2":"LA CABAR?n??A-RUNTA","Criterio_u":"Acceso ubicado en vía"}},{"type":"Feature","id":192,"geometry":{"type":"Point","coordinates":[-73.35266319015409,5.5097152203811675]},"properties":{"FID":192,"COD_MPIO":"15001","X_LONG":-73.352663190200005,"Y_LAT":5.5097152203800004,"direccion_":"EL CERRITO VDA RUNTA","DIRECC_NOR":" ","Fecha_actu":1669852800000,"VEREDA_V1":"RUNTA","VEREDA_V2":"LA CABAR?n??A-RUNTA","Criterio_u":"Sin acceso definido"}},{"type":"Feature","id":193,"geometry":{"type":"Point","coordinates":[-73.386262685574422,5.4901011981118586]},"properties":{"FID":193,"COD_MPIO":"15001","X_LONG":-73.386262685600002,"Y_LAT":5.4901011981099996,"direccion_":"LAS ACACIAS VDA RUNTA","DIRECC_NOR":" ","Fecha_actu":1669852800000,"VEREDA_V1":"RUNTA","VEREDA_V2":"RUNTA PARTE ALTA","Criterio_u":"Acceso ubicado en vía"}},{"type":"Feature","id":194,"geometry":{"type":"Point","coordinates":[-73.385334425143583,5.4905742163270475]},"properties":{"FID":194,"COD_MPIO":"15001","X_LONG":-73.385334425099998,"Y_LAT":5.4905742163299998,"direccion_":"LA LOMITA VDA RUNTA","DIRECC_NOR":" ","Fecha_actu":1669852800000,"VEREDA_V1":"RUNTA","VEREDA_V2":"RUNTA PARTE ALTA","Criterio_u":"Sin acceso definido"}},{"type":"Feature","id":195,"geometry":{"type":"Point","coordinates":[-73.355127328063702,5.5116614935831194]},"properties":{"FID":195,"COD_MPIO":"15001","X_LONG":-73.355206621299999,"Y_LAT":5.5123205896199998,"direccion_":"LC 15 VDA RUNTA","DIRECC_NOR":" ","Fecha_actu":1669852800000,"VEREDA_V1":"RUNTA","VEREDA_V2":"LA CABAR?n??A-RUNTA","Criterio_u":"Acceso ubicado en vía"}},{"type":"Feature","id":196,"geometry":{"type":"Point","coordinates":[-73.386151482604816,5.5102950420825891]},"properties":{"FID":196,"COD_MPIO":"15001","X_LONG":-73.386151482599999,"Y_LAT":5.5102950420800001,"direccion_":"EL TUNO VDA RUNTA","DIRECC_NOR":" ","Fecha_actu":1669852800000,"VEREDA_V1":"RUNTA","VEREDA_V2":"RUNTA PARTE ALTA","Criterio_u":"Sin acceso definido"}},{"type":"Feature","id":197,"geometry":{"type":"Point","coordinates":[-73.388770456791121,5.5137679801082413]},"properties":{"FID":197,"COD_MPIO":"15001","X_LONG":-73.388946099799995,"Y_LAT":5.5131856097299998,"direccion_":"EL POTRERITO VDA RUNTA","DIRECC_NOR":" ","Fecha_actu":1669852800000,"VEREDA_V1":"RUNTA","VEREDA_V2":"RUNTA PARTE ALTA","Criterio_u":"Acceso ubicado en vía"}},{"type":"Feature","id":198,"geometry":{"type":"Point","coordinates":[-73.383911647304615,5.4904365040414973]},"properties":{"FID":198,"COD_MPIO":"15001","X_LONG":-73.383911647299996,"Y_LAT":5.4904365040399998,"direccion_":"EL PINO VDA RUNTA","DIRECC_NOR":" ","Fecha_actu":1669852800000,"VEREDA_V1":"RUNTA","VEREDA_V2":"RUNTA","Criterio_u":"Acceso ubicado en vía"}},{"type":"Feature","id":199,"geometry":{"type":"Point","coordinates":[-73.385871270043026,5.4904173997432508]},"properties":{"FID":199,"COD_MPIO":"15001","X_LONG":-73.385871269999996,"Y_LAT":5.4904173997400001,"direccion_":"LA PALMA VDA RUNTA","DIRECC_NOR":" ","Fecha_actu":1669852800000,"VEREDA_V1":"RUNTA","VEREDA_V2":"RUNTA PARTE ALTA","Criterio_u":"Sin acceso definido"}},{"type":"Feature","id":200,"geometry":{"type":"Point","coordinates":[-73.378581979774481,5.4827378603640113]},"properties":{"FID":200,"COD_MPIO":"15001","X_LONG":-73.378581979800003,"Y_LAT":5.4827378603600003,"direccion_":"LOS ENCENILLOS VDA RUNTA LO 5","DIRECC_NOR":" ","Fecha_actu":1669852800000,"VEREDA_V1":"RUNTA","VEREDA_V2":"RUNTA","Criterio_u":"Sin acceso definido"}},{"type":"Feature","id":201,"geometry":{"type":"Point","coordinates":[-73.386644300294165,5.4911718796785749]},"properties":{"FID":201,"COD_MPIO":"15001","X_LONG":-73.386644300300006,"Y_LAT":5.4911718796800004,"direccion_":"LC 2 VDA RUNTA","DIRECC_NOR":" ","Fecha_actu":1669852800000,"VEREDA_V1":"RUNTA","VEREDA_V2":"RUNTA PARTE ALTA","Criterio_u":"Acceso ubicado en vía"}},{"type":"Feature","id":202,"geometry":{"type":"Point","coordinates":[-73.425380356318328,5.4845151383630082]},"properties":{"FID":202,"COD_MPIO":"15001","X_LONG":-73.423430549700001,"Y_LAT":5.4840723301700001,"direccion_":"LA ROCHELA VDA LA HOYA","DIRECC_NOR":" ","Fecha_actu":1669852800000,"VEREDA_V1":"LA HOYA","VEREDA_V2":"LA HOYA","Criterio_u":"Acceso ubicado en vía"}},{"type":"Feature","id":203,"geometry":{"type":"Point","coordinates":[-73.353114519419478,5.5125055136186347]},"properties":{"FID":203,"COD_MPIO":"15001","X_LONG":-73.353114519399995,"Y_LAT":5.5125055136199999,"direccion_":"LT 18","DIRECC_NOR":" ","Fecha_actu":1669852800000,"VEREDA_V1":"RUNTA","VEREDA_V2":"LA CABAR?n??A-RUNTA","Criterio_u":"Sin acceso definido"}},{"type":"Feature","id":204,"geometry":{"type":"Point","coordinates":[-73.359533389154535,5.5098582557539544]},"properties":{"FID":204,"COD_MPIO":"15001","X_LONG":-73.359485539800005,"Y_LAT":5.5097581081499998,"direccion_":"EL BOSQUE VDA RUNTA","DIRECC_NOR":" ","Fecha_actu":1669852800000,"VEREDA_V1":"RUNTA","VEREDA_V2":"LA CABAR?n??A-RUNTA","Criterio_u":"Acceso ubicado en vía"}},{"type":"Feature","id":205,"geometry":{"type":"Point","coordinates":[-73.404897639314584,5.5115380850146494]},"properties":{"FID":205,"COD_MPIO":"15001","X_LONG":-73.404897639300003,"Y_LAT":5.5115380850099998,"direccion_":"LA COLONIA VDA EL PORVENIR","DIRECC_NOR":" ","Fecha_actu":1669852800000,"VEREDA_V1":"EL PORVENIR","VEREDA_V2":"PORVENIR","Criterio_u":"Acceso ubicado en vía"}},{"type":"Feature","id":206,"geometry":{"type":"Point","coordinates":[-73.380943389925449,5.5106197701862811]},"properties":{"FID":206,"COD_MPIO":"15001","X_LONG":-73.380943389899997,"Y_LAT":5.5106197701899999,"direccion_":"BRISAS DEL ORIENTE VDA RUNTA","DIRECC_NOR":" ","Fecha_actu":1669852800000,"VEREDA_V1":"RUNTA","VEREDA_V2":"RUNTA PARTE ALTA","Criterio_u":"Sin acceso definido"}},{"type":"Feature","id":207,"geometry":{"type":"Point","coordinates":[-73.406016840204984,5.5138634197610372]},"properties":{"FID":207,"COD_MPIO":"15001","X_LONG":-73.406016840199996,"Y_LAT":5.5138634197599998,"direccion_":"EL ARRAYAN VDA PORVENIR","DIRECC_NOR":" ","Fecha_actu":1669852800000,"VEREDA_V1":"EL PORVENIR","VEREDA_V2":"PORVENIR","Criterio_u":"Sin acceso definido"}},{"type":"Feature","id":208,"geometry":{"type":"Point","coordinates":[-73.425959062860443,5.4817314569412474]},"properties":{"FID":208,"COD_MPIO":"15001","X_LONG":-73.425959062900006,"Y_LAT":5.4817314569400004,"direccion_":"EL ENCENILLO VDA LA HOYA","DIRECC_NOR":" ","Fecha_actu":1669852800000,"VEREDA_V1":"LA HOYA","VEREDA_V2":"LA HOYA","Criterio_u":"Acceso ubicado en vía"}},{"type":"Feature","id":209,"geometry":{"type":"Point","coordinates":[-73.383792059955567,5.4885071497851641]},"properties":{"FID":209,"COD_MPIO":"15001","X_LONG":-73.383792060000005,"Y_LAT":5.4885071497900002,"direccion_":"LA PRADERA VDA RUNTA","DIRECC_NOR":" ","Fecha_actu":1669852800000,"VEREDA_V1":"RUNTA","VEREDA_V2":"RUNTA","Criterio_u":"Acceso ubicado en vía"}},{"type":"Feature","id":210,"geometry":{"type":"Point","coordinates":[-73.430437950151259,5.4846816001757475]},"properties":{"FID":210,"COD_MPIO":"15001","X_LONG":-73.430437950200002,"Y_LAT":5.4846816001800001,"direccion_":"DE TERRENO 3 VDA LA HOYA","DIRECC_NOR":" ","Fecha_actu":1669852800000,"VEREDA_V1":"LA HOYA","VEREDA_V2":"LA HOYA","Criterio_u":"Sin acceso definido"}},{"type":"Feature","id":211,"geometry":{"type":"Point","coordinates":[-73.389675170272824,5.4891990602884562]},"properties":{"FID":211,"COD_MPIO":"15001","X_LONG":-73.389675170299995,"Y_LAT":5.4891990602899998,"direccion_":"EL ALTO DEL MORAL VDA RUNTA","DIRECC_NOR":" ","Fecha_actu":1669852800000,"VEREDA_V1":"RUNTA","VEREDA_V2":"RUNTA PARTE ALTA","Criterio_u":"Sin acceso definido"}},{"type":"Feature","id":212,"geometry":{"type":"Point","coordinates":[-73.379189239791572,5.5104784597131697]},"properties":{"FID":212,"COD_MPIO":"15001","X_LONG":-73.379189239799999,"Y_LAT":5.5104784597099998,"direccion_":"SANTA CECILIA VDA RUNTA","DIRECC_NOR":" ","Fecha_actu":1669852800000,"VEREDA_V1":"RUNTA","VEREDA_V2":"RUNTA PARTE ALTA","Criterio_u":"Sin acceso definido"}},{"type":"Feature","id":213,"geometry":{"type":"Point","coordinates":[-73.381663219881659,5.5104981395775212]},"properties":{"FID":213,"COD_MPIO":"15001","X_LONG":-73.381663219900005,"Y_LAT":5.5104981395800001,"direccion_":"SANTA INES VDA RUNTA","DIRECC_NOR":" ","Fecha_actu":1669852800000,"VEREDA_V1":"RUNTA","VEREDA_V2":"RUNTA PARTE ALTA","Criterio_u":"Sin acceso definido"}},{"type":"Feature","id":214,"geometry":{"type":"Point","coordinates":[-73.406112430943892,5.5111637080387368]},"properties":{"FID":214,"COD_MPIO":"15001","X_LONG":-73.406112430899995,"Y_LAT":5.5111637080399998,"direccion_":"TRES ESQUINAS VDA EL PORVENIR","DIRECC_NOR":" ","Fecha_actu":1669852800000,"VEREDA_V1":"EL PORVENIR","VEREDA_V2":"PORVENIR","Criterio_u":"Acceso ubicado en vía"}},{"type":"Feature","id":215,"geometry":{"type":"Point","coordinates":[-73.383287980955515,5.4861032250838093]},"properties":{"FID":215,"COD_MPIO":"15001","X_LONG":-73.383287980999995,"Y_LAT":5.4861032250799999,"direccion_":"LA MELGA VDA RUNTA","DIRECC_NOR":" ","Fecha_actu":1669852800000,"VEREDA_V1":"RUNTA","VEREDA_V2":"RUNTA","Criterio_u":"Acceso ubicado en vía"}},{"type":"Feature","id":216,"geometry":{"type":"Point","coordinates":[-73.378770205180786,5.4935597613739446]},"properties":{"FID":216,"COD_MPIO":"15001","X_LONG":-73.378770205199999,"Y_LAT":5.4935597613700002,"direccion_":"CA VDA RUNTA","DIRECC_NOR":" ","Fecha_actu":1669852800000,"VEREDA_V1":"RUNTA","VEREDA_V2":"RUNTA","Criterio_u":"Acceso ubicado en vía"}},{"type":"Feature","id":217,"geometry":{"type":"Point","coordinates":[-73.382641850441019,5.4871191999911275]},"properties":{"FID":217,"COD_MPIO":"15001","X_LONG":-73.382641850400006,"Y_LAT":5.4871191999900004,"direccion_":"EL DUBAN VDA RUNTA","DIRECC_NOR":" ","Fecha_actu":1669852800000,"VEREDA_V1":"RUNTA","VEREDA_V2":"RUNTA","Criterio_u":"Sin acceso definido"}},{"type":"Feature","id":218,"geometry":{"type":"Point","coordinates":[-73.389699600356209,5.4871446301206106]},"properties":{"FID":218,"COD_MPIO":"15001","X_LONG":-73.389699600399993,"Y_LAT":5.4871446301200004,"direccion_":"SAN DIEGO VDA RUNTA LT 7","DIRECC_NOR":" ","Fecha_actu":1669852800000,"VEREDA_V1":"RUNTA","VEREDA_V2":"RUNTA PARTE ALTA","Criterio_u":"Sin acceso definido"}},{"type":"Feature","id":219,"geometry":{"type":"Point","coordinates":[-73.375664329944811,5.4906984603657065]},"properties":{"FID":219,"COD_MPIO":"15001","X_LONG":-73.375664329900005,"Y_LAT":5.49069846037,"direccion_":"EL CARMEN VDA RUNTA","DIRECC_NOR":" ","Fecha_actu":1669852800000,"VEREDA_V1":"RUNTA","VEREDA_V2":"RUNTA","Criterio_u":"Sin acceso definido"}},{"type":"Feature","id":220,"geometry":{"type":"Point","coordinates":[-73.376492500328595,5.5084386498238587]},"properties":{"FID":220,"COD_MPIO":"15001","X_LONG":-73.376492500300003,"Y_LAT":5.5084386498200004,"direccion_":"LT 7","DIRECC_NOR":" ","Fecha_actu":1669852800000,"VEREDA_V1":"RUNTA","VEREDA_V2":"RUNTA PARTE ALTA","Criterio_u":"Sin acceso definido"}},{"type":"Feature","id":221,"geometry":{"type":"Point","coordinates":[-73.354858071043111,5.5127728038218606]},"properties":{"FID":221,"COD_MPIO":"15001","X_LONG":-73.354816569099995,"Y_LAT":5.5126656567900003,"direccion_":"LC 13 VDA RUNTA","DIRECC_NOR":" ","Fecha_actu":1669852800000,"VEREDA_V1":"RUNTA","VEREDA_V2":"LA CABAR?n??A-RUNTA","Criterio_u":"Acceso ubicado en vía"}},{"type":"Feature","id":222,"geometry":{"type":"Point","coordinates":[-73.386424164243749,5.5093969503090534]},"properties":{"FID":222,"COD_MPIO":"15001","X_LONG":-73.386424164199994,"Y_LAT":5.5093969503100002,"direccion_":"LA VEGA VDA RUNTA","DIRECC_NOR":" ","Fecha_actu":1669852800000,"VEREDA_V1":"RUNTA","VEREDA_V2":"RUNTA PARTE ALTA","Criterio_u":"Sin acceso definido"}},{"type":"Feature","id":223,"geometry":{"type":"Point","coordinates":[-73.383737620394811,5.4911524597183075]},"properties":{"FID":223,"COD_MPIO":"15001","X_LONG":-73.383737620399998,"Y_LAT":5.4911524597200003,"direccion_":"VILLA MARIA VDA RUNTA","DIRECC_NOR":" ","Fecha_actu":1669852800000,"VEREDA_V1":"RUNTA","VEREDA_V2":"RUNTA","Criterio_u":"Acceso ubicado en construcción"}},{"type":"Feature","id":224,"geometry":{"type":"Point","coordinates":[-73.382967941916945,5.4824594932110813]},"properties":{"FID":224,"COD_MPIO":"15001","X_LONG":-73.382967941900006,"Y_LAT":5.4824594932100004,"direccion_":"LOS ALIZOS VDA RUNTA","DIRECC_NOR":" ","Fecha_actu":1669852800000,"VEREDA_V1":"RUNTA","VEREDA_V2":"RUNTA","Criterio_u":"Acceso ubicado en vía"}},{"type":"Feature","id":225,"geometry":{"type":"Point","coordinates":[-73.383425355995371,5.4916673926360886]},"properties":{"FID":225,"COD_MPIO":"15001","X_LONG":-73.383425356000004,"Y_LAT":5.4916673926400001,"direccion_":"SANTA ROSITA VDA RUNTA LT 3","DIRECC_NOR":" ","Fecha_actu":1669852800000,"VEREDA_V1":"RUNTA","VEREDA_V2":"RUNTA","Criterio_u":"Acceso ubicado en vía"}},{"type":"Feature","id":226,"geometry":{"type":"Point","coordinates":[-73.377269859916055,5.5118051099179297]},"properties":{"FID":226,"COD_MPIO":"15001","X_LONG":-73.377269859899997,"Y_LAT":5.5118051099200001,"direccion_":"LA MANGUITA VDA RUNTA","DIRECC_NOR":" ","Fecha_actu":1669852800000,"VEREDA_V1":"RUNTA","VEREDA_V2":"RUNTA PARTE ALTA","Criterio_u":"Sin acceso definido"}},{"type":"Feature","id":227,"geometry":{"type":"Point","coordinates":[-73.382685179777184,5.4876523198987002]},"properties":{"FID":227,"COD_MPIO":"15001","X_LONG":-73.382685179800006,"Y_LAT":5.4876523198999996,"direccion_":"EL ALJIBE VDA RUNTA","DIRECC_NOR":" ","Fecha_actu":1669852800000,"VEREDA_V1":"RUNTA","VEREDA_V2":"RUNTA","Criterio_u":"Sin acceso definido"}},{"type":"Feature","id":228,"geometry":{"type":"Point","coordinates":[-73.386846930141701,5.4917733399677218]},"properties":{"FID":228,"COD_MPIO":"15001","X_LONG":-73.386846930100006,"Y_LAT":5.4917733399699999,"direccion_":"LOS LAURELES VDA RUNTA","DIRECC_NOR":" ","Fecha_actu":1669852800000,"VEREDA_V1":"RUNTA","VEREDA_V2":"RUNTA PARTE ALTA","Criterio_u":"Sin acceso definido"}},{"type":"Feature","id":229,"geometry":{"type":"Point","coordinates":[-73.382366812578312,5.4850464848074694]},"properties":{"FID":229,"COD_MPIO":"15001","X_LONG":-73.382366812599997,"Y_LAT":5.4850464848099998,"direccion_":"LAS LAGUNAS VDA RUNTA","DIRECC_NOR":" ","Fecha_actu":1669852800000,"VEREDA_V1":"RUNTA","VEREDA_V2":"RUNTA","Criterio_u":"Acceso ubicado en vía"}},{"type":"Feature","id":230,"geometry":{"type":"Point","coordinates":[-73.383068335934922,5.489401104677313]},"properties":{"FID":230,"COD_MPIO":"15001","X_LONG":-73.383068335900006,"Y_LAT":5.4894011046799998,"direccion_":"LA PALMITA VDA RUNTA","DIRECC_NOR":" ","Fecha_actu":1669852800000,"VEREDA_V1":"RUNTA","VEREDA_V2":"RUNTA","Criterio_u":"Acceso ubicado en vía"}},{"type":"Feature","id":231,"geometry":{"type":"Point","coordinates":[-73.379335885942339,5.4927904516180774]},"properties":{"FID":231,"COD_MPIO":"15001","X_LONG":-73.379335885900005,"Y_LAT":5.4927904516200003,"direccion_":"EL CARMEN VDA RUNTA LT 3","DIRECC_NOR":" ","Fecha_actu":1669852800000,"VEREDA_V1":"RUNTA","VEREDA_V2":"RUNTA","Criterio_u":"Sin acceso definido"}},{"type":"Feature","id":232,"geometry":{"type":"Point","coordinates":[-73.376331090007739,5.4924236901012478]},"properties":{"FID":232,"COD_MPIO":"15001","X_LONG":-73.376331089999994,"Y_LAT":5.4924236900999999,"direccion_":"SANTA ISABEL VDA RUNTA","DIRECC_NOR":" ","Fecha_actu":1669852800000,"VEREDA_V1":"RUNTA","VEREDA_V2":"RUNTA","Criterio_u":"Sin acceso definido"}},{"type":"Feature","id":233,"geometry":{"type":"Point","coordinates":[-73.385520153132518,5.5074749938759169]},"properties":{"FID":233,"COD_MPIO":"15001","X_LONG":-73.385520153100003,"Y_LAT":5.5074749938799998,"direccion_":"SAN MARTIN VDA RUNTA","DIRECC_NOR":" ","Fecha_actu":1669852800000,"VEREDA_V1":"RUNTA","VEREDA_V2":"RUNTA PARTE ALTA","Criterio_u":"Acceso ubicado en vía"}},{"type":"Feature","id":234,"geometry":{"type":"Point","coordinates":[-73.388310523711652,5.5090785552312127]},"properties":{"FID":234,"COD_MPIO":"15001","X_LONG":-73.3883105237,"Y_LAT":5.5090785552300003,"direccion_":"EL DIAMANTE VDA RUNTA","DIRECC_NOR":" ","Fecha_actu":1669852800000,"VEREDA_V1":"RUNTA","VEREDA_V2":"RUNTA PARTE ALTA","Criterio_u":"Sin acceso definido"}},{"type":"Feature","id":235,"geometry":{"type":"Point","coordinates":[-73.37746693015464,5.5110422402072459]},"properties":{"FID":235,"COD_MPIO":"15001","X_LONG":-73.377466930200001,"Y_LAT":5.5110422402100001,"direccion_":"SANTA MARIA VDA RUNTA","DIRECC_NOR":" ","Fecha_actu":1669852800000,"VEREDA_V1":"RUNTA","VEREDA_V2":"RUNTA PARTE ALTA","Criterio_u":"Sin acceso definido"}},{"type":"Feature","id":236,"geometry":{"type":"Point","coordinates":[-73.376027999592452,5.4916032799674213]},"properties":{"FID":236,"COD_MPIO":"15001","X_LONG":-73.376027999599998,"Y_LAT":5.4916032799699996,"direccion_":"SAN RICARDO VDA RUNTA","DIRECC_NOR":" ","Fecha_actu":1669852800000,"VEREDA_V1":"RUNTA","VEREDA_V2":"RUNTA","Criterio_u":"Sin acceso definido"}},{"type":"Feature","id":237,"geometry":{"type":"Point","coordinates":[-73.376576850441268,5.4916104601546749]},"properties":{"FID":237,"COD_MPIO":"15001","X_LONG":-73.376576850399999,"Y_LAT":5.4916104601500004,"direccion_":"SAN PEDRO VDA RUNTA","DIRECC_NOR":" ","Fecha_actu":1669852800000,"VEREDA_V1":"RUNTA","VEREDA_V2":"RUNTA","Criterio_u":"Sin acceso definido"}},{"type":"Feature","id":238,"geometry":{"type":"Point","coordinates":[-73.378479430081597,5.4891436899293922]},"properties":{"FID":238,"COD_MPIO":"15001","X_LONG":-73.378479430100001,"Y_LAT":5.4891436899299997,"direccion_":"EL DIAMANTE VR RUNTA","DIRECC_NOR":" ","Fecha_actu":1669852800000,"VEREDA_V1":"RUNTA","VEREDA_V2":"RUNTA","Criterio_u":"Sin acceso definido"}},{"type":"Feature","id":239,"geometry":{"type":"Point","coordinates":[-73.383498130034639,5.4891567597766766]},"properties":{"FID":239,"COD_MPIO":"15001","X_LONG":-73.383498130000007,"Y_LAT":5.4891567597800002,"direccion_":"FRANJA DE TERRENO VDA RUNTA","DIRECC_NOR":" ","Fecha_actu":1669852800000,"VEREDA_V1":"RUNTA","VEREDA_V2":"RUNTA","Criterio_u":"Acceso ubicado en vía"}},{"type":"Feature","id":240,"geometry":{"type":"Point","coordinates":[-73.379485346071817,5.4925857911014191]},"properties":{"FID":240,"COD_MPIO":"15001","X_LONG":-73.379485346099997,"Y_LAT":5.4925857910999998,"direccion_":"EL CARMEN VDA RUNTA LT 10","DIRECC_NOR":" ","Fecha_actu":1669852800000,"VEREDA_V1":"RUNTA","VEREDA_V2":"RUNTA","Criterio_u":"Sin acceso definido"}},{"type":"Feature","id":241,"geometry":{"type":"Point","coordinates":[-73.384567668563022,5.4932250382050256]},"properties":{"FID":241,"COD_MPIO":"15001","X_LONG":-73.384567668599999,"Y_LAT":5.4932250382100003,"direccion_":"LA UNION VDA RUNTA","DIRECC_NOR":" ","Fecha_actu":1669852800000,"VEREDA_V1":"RUNTA","VEREDA_V2":"RUNTA","Criterio_u":"Acceso ubicado en vía"}},{"type":"Feature","id":242,"geometry":{"type":"Point","coordinates":[-73.379232078097914,5.4931492910070006]},"properties":{"FID":242,"COD_MPIO":"15001","X_LONG":-73.379232078100003,"Y_LAT":5.4931492910099999,"direccion_":"LC 12 VDA RUNTA","DIRECC_NOR":" ","Fecha_actu":1669852800000,"VEREDA_V1":"RUNTA","VEREDA_V2":"RUNTA","Criterio_u":"Acceso ubicado en vía"}},{"type":"Feature","id":243,"geometry":{"type":"Point","coordinates":[-73.385699182071562,5.5074532401749252]},"properties":{"FID":243,"COD_MPIO":"15001","X_LONG":-73.385699182099998,"Y_LAT":5.5074532401700003,"direccion_":"EL PORVENIR VDA RUNTA","DIRECC_NOR":" ","Fecha_actu":1669852800000,"VEREDA_V1":"RUNTA","VEREDA_V2":"RUNTA PARTE ALTA","Criterio_u":"Acceso ubicado en vía"}},{"type":"Feature","id":244,"geometry":{"type":"Point","coordinates":[-73.353917396370719,5.511887239604448]},"properties":{"FID":244,"COD_MPIO":"15001","X_LONG":-73.353917396400007,"Y_LAT":5.5118872396,"direccion_":"LA CONCEPCION VDA RUNTA","DIRECC_NOR":" ","Fecha_actu":1669852800000,"VEREDA_V1":"RUNTA","VEREDA_V2":"LA CABAR?n??A-RUNTA","Criterio_u":"Sin acceso definido"}},{"type":"Feature","id":245,"geometry":{"type":"Point","coordinates":[-73.379125081257428,5.511926092115516]},"properties":{"FID":245,"COD_MPIO":"15001","X_LONG":-73.379028756699995,"Y_LAT":5.5117896766500003,"direccion_":"SANTA RITA VDA RUNTA","DIRECC_NOR":" ","Fecha_actu":1669852800000,"VEREDA_V1":"RUNTA","VEREDA_V2":"RUNTA PARTE ALTA","Criterio_u":"Acceso ubicado en vía"}},{"type":"Feature","id":246,"geometry":{"type":"Point","coordinates":[-73.355408421061725,5.5119154297533441]},"properties":{"FID":246,"COD_MPIO":"15001","X_LONG":-73.356419722200002,"Y_LAT":5.5116282357499999,"direccion_":"LC 16 VDA RUNTA","DIRECC_NOR":" ","Fecha_actu":1669852800000,"VEREDA_V1":"RUNTA","VEREDA_V2":"LA CABAR?n??A-RUNTA","Criterio_u":"Acceso ubicado en vía"}},{"type":"Feature","id":247,"geometry":{"type":"Point","coordinates":[-73.408152310080993,5.5138408701600952]},"properties":{"FID":247,"COD_MPIO":"15001","X_LONG":-73.408152310099993,"Y_LAT":5.5138408701600001,"direccion_":"EL RUBI VDA EL PORVENIR","DIRECC_NOR":" ","Fecha_actu":1669852800000,"VEREDA_V1":"EL PORVENIR","VEREDA_V2":"PORVENIR","Criterio_u":"Sin acceso definido"}},{"type":"Feature","id":248,"geometry":{"type":"Point","coordinates":[-73.384764092189073,5.5075285979664841]},"properties":{"FID":248,"COD_MPIO":"15001","X_LONG":-73.384764092200001,"Y_LAT":5.5075285979700004,"direccion_":"EL BOQUERON VDA RUNTA","DIRECC_NOR":" ","Fecha_actu":1669852800000,"VEREDA_V1":"RUNTA","VEREDA_V2":"RUNTA PARTE ALTA","Criterio_u":"Acceso ubicado en vía"}},{"type":"Feature","id":249,"geometry":{"type":"Point","coordinates":[-73.381310393359911,5.4925875447794397]},"properties":{"FID":249,"COD_MPIO":"15001","X_LONG":-73.3813103934,"Y_LAT":5.4925875447800001,"direccion_":"EL ARRAYAN VDA RUNTA","DIRECC_NOR":" ","Fecha_actu":1669852800000,"VEREDA_V1":"RUNTA","VEREDA_V2":"RUNTA","Criterio_u":"Acceso ubicado en vía"}},{"type":"Feature","id":250,"geometry":{"type":"Point","coordinates":[-73.390033169694959,5.4862923803891022]},"properties":{"FID":250,"COD_MPIO":"15001","X_LONG":-73.390033169700004,"Y_LAT":5.4862923803900001,"direccion_":"SANTA ANA VDA RUNTA LT 11","DIRECC_NOR":" ","Fecha_actu":1669852800000,"VEREDA_V1":"RUNTA","VEREDA_V2":"RUNTA PARTE ALTA","Criterio_u":"Sin acceso definido"}},{"type":"Feature","id":251,"geometry":{"type":"Point","coordinates":[-73.376908085139974,5.493191621196388]},"properties":{"FID":251,"COD_MPIO":"15001","X_LONG":-73.376908085099998,"Y_LAT":5.4931916212000003,"direccion_":"LA FALDA DEL RIO VDA RUNTA","DIRECC_NOR":" ","Fecha_actu":1669852800000,"VEREDA_V1":"RUNTA","VEREDA_V2":"RUNTA","Criterio_u":"Sin acceso definido"}},{"type":"Feature","id":252,"geometry":{"type":"Point","coordinates":[-73.376024389713791,5.4936333510983104]},"properties":{"FID":252,"COD_MPIO":"15001","X_LONG":-73.376024389700007,"Y_LAT":5.4936333510999997,"direccion_":"SAN VICENTE VDA RUNTA","DIRECC_NOR":" ","Fecha_actu":1669852800000,"VEREDA_V1":"RUNTA","VEREDA_V2":"RUNTA","Criterio_u":"Sin acceso definido"}},{"type":"Feature","id":253,"geometry":{"type":"Point","coordinates":[-73.426645095394804,5.4845810478771]},"properties":{"FID":253,"COD_MPIO":"15001","X_LONG":-73.426645095400005,"Y_LAT":5.4845810478799999,"direccion_":"RUCHICAL VDA LA HOYA","DIRECC_NOR":" ","Fecha_actu":1669852800000,"VEREDA_V1":"LA HOYA","VEREDA_V2":"LA HOYA","Criterio_u":"Sin acceso definido"}},{"type":"Feature","id":254,"geometry":{"type":"Point","coordinates":[-73.389950670387066,5.4864999699976806]},"properties":{"FID":254,"COD_MPIO":"15001","X_LONG":-73.389950670399998,"Y_LAT":5.4864999699999997,"direccion_":"SANTA MONICA VDA RUNTA LT 10","DIRECC_NOR":" ","Fecha_actu":1669852800000,"VEREDA_V1":"RUNTA","VEREDA_V2":"RUNTA PARTE ALTA","Criterio_u":"Sin acceso definido"}},{"type":"Feature","id":255,"geometry":{"type":"Point","coordinates":[-73.377580117928062,5.5089403618082997]},"properties":{"FID":255,"COD_MPIO":"15001","X_LONG":-73.377580117899996,"Y_LAT":5.5089403618099997,"direccion_":"SPAC VDA RUNTA","DIRECC_NOR":" ","Fecha_actu":1669852800000,"VEREDA_V1":"RUNTA","VEREDA_V2":"RUNTA PARTE ALTA","Criterio_u":"Acceso ubicado en vía"}},{"type":"Feature","id":256,"geometry":{"type":"Point","coordinates":[-73.378667797580761,5.5090319478661627]},"properties":{"FID":256,"COD_MPIO":"15001","X_LONG":-73.378667797600002,"Y_LAT":5.5090319478699996,"direccion_":"LA MESETA VDA RUNTA","DIRECC_NOR":" ","Fecha_actu":1669852800000,"VEREDA_V1":"RUNTA","VEREDA_V2":"RUNTA PARTE ALTA","Criterio_u":"Acceso ubicado en vía"}},{"type":"Feature","id":257,"geometry":{"type":"Point","coordinates":[-73.383102356388576,5.4905227382338353]},"properties":{"FID":257,"COD_MPIO":"15001","X_LONG":-73.383102356400002,"Y_LAT":5.4905227382300001,"direccion_":"EL RUBI VDA RUNTA","DIRECC_NOR":" ","Fecha_actu":1669852800000,"VEREDA_V1":"RUNTA","VEREDA_V2":"RUNTA","Criterio_u":"Acceso ubicado en vía"}},{"type":"Feature","id":258,"geometry":{"type":"Point","coordinates":[-73.426183423925806,5.4843911011684554]},"properties":{"FID":258,"COD_MPIO":"15001","X_LONG":-73.4261834239,"Y_LAT":5.4843911011699999,"direccion_":"EL CERRITO VDA LA HOYA","DIRECC_NOR":" ","Fecha_actu":1669852800000,"VEREDA_V1":"LA HOYA","VEREDA_V2":"LA HOYA","Criterio_u":"Sin acceso definido"}},{"type":"Feature","id":259,"geometry":{"type":"Point","coordinates":[-73.408692520243562,5.5127077001003499]},"properties":{"FID":259,"COD_MPIO":"15001","X_LONG":-73.408692520200006,"Y_LAT":5.5127077001,"direccion_":"EL PANTANO VDA EL PORVENIR","DIRECC_NOR":" ","Fecha_actu":1669852800000,"VEREDA_V1":"EL PORVENIR","VEREDA_V2":"PORVENIR","Criterio_u":"Sin acceso definido"}},{"type":"Feature","id":260,"geometry":{"type":"Point","coordinates":[-73.437290750867419,5.4663800296146974]},"properties":{"FID":260,"COD_MPIO":"15001","X_LONG":-73.437290750900004,"Y_LAT":5.4663800296099998,"direccion_":"LA ESMERALDA VDA LA HOYA","DIRECC_NOR":" ","Fecha_actu":1669852800000,"VEREDA_V1":"LA HOYA","VEREDA_V2":"LA HOYA","Criterio_u":"Acceso ubicado en vía"}},{"type":"Feature","id":261,"geometry":{"type":"Point","coordinates":[-73.419943581331154,5.4563399452323438]},"properties":{"FID":261,"COD_MPIO":"15001","X_LONG":-73.419943581300004,"Y_LAT":5.4563399452299999,"direccion_":"LC VDA LA LAJITA","DIRECC_NOR":" ","Fecha_actu":1669852800000,"VEREDA_V1":"LA LAJITA","VEREDA_V2":"LA LAJITA","Criterio_u":"Acceso ubicado en vía"}},{"type":"Feature","id":262,"geometry":{"type":"Point","coordinates":[-73.420782259393718,5.4597438126269253]},"properties":{"FID":262,"COD_MPIO":"15001","X_LONG":-73.420782259399999,"Y_LAT":5.4597438126300002,"direccion_":"EL PEDREGAL VDA LA LAJITA","DIRECC_NOR":" ","Fecha_actu":1669852800000,"VEREDA_V1":"LA LAJITA","VEREDA_V2":"LA LAJITA","Criterio_u":"Acceso ubicado en vía"}},{"type":"Feature","id":263,"geometry":{"type":"Point","coordinates":[-73.431583704424384,5.4670127998008979]},"properties":{"FID":263,"COD_MPIO":"15001","X_LONG":-73.431583704399998,"Y_LAT":5.4670127998,"direccion_":"LA VEGA VDA LA HOYA","DIRECC_NOR":" ","Fecha_actu":1669852800000,"VEREDA_V1":"LA HOYA","VEREDA_V2":"LA HOYA","Criterio_u":"Acceso ubicado en vía"}},{"type":"Feature","id":264,"geometry":{"type":"Point","coordinates":[-73.385785339821552,5.4859329798231897]},"properties":{"FID":264,"COD_MPIO":"15001","X_LONG":-73.385785339799995,"Y_LAT":5.4859329798200003,"direccion_":"CASTELAMAR VDA RUNTA","DIRECC_NOR":" ","Fecha_actu":1669852800000,"VEREDA_V1":"RUNTA","VEREDA_V2":"RUNTA","Criterio_u":"Sin acceso definido"}},{"type":"Feature","id":265,"geometry":{"type":"Point","coordinates":[-73.384468070445052,5.488184109708925]},"properties":{"FID":265,"COD_MPIO":"15001","X_LONG":-73.384468070400004,"Y_LAT":5.4881841097099997,"direccion_":"EL DANUBIO VDA RUNTA","DIRECC_NOR":" ","Fecha_actu":1669852800000,"VEREDA_V1":"RUNTA","VEREDA_V2":"RUNTA","Criterio_u":"Acceso ubicado en vía"}},{"type":"Feature","id":266,"geometry":{"type":"Point","coordinates":[-73.383994550408147,5.4882005700003447]},"properties":{"FID":266,"COD_MPIO":"15001","X_LONG":-73.383994550400004,"Y_LAT":5.4882005700000001,"direccion_":"SAN RAFAEL VDA RUNTA","DIRECC_NOR":" ","Fecha_actu":1669852800000,"VEREDA_V1":"RUNTA","VEREDA_V2":"RUNTA","Criterio_u":"Acceso ubicado en vía"}},{"type":"Feature","id":267,"geometry":{"type":"Point","coordinates":[-73.389469509710068,5.488231500383506]},"properties":{"FID":267,"COD_MPIO":"15001","X_LONG":-73.389469509700007,"Y_LAT":5.4882315003800004,"direccion_":"LA FRONTERA LC 2 VDA RUNTA","DIRECC_NOR":" ","Fecha_actu":1669852800000,"VEREDA_V1":"RUNTA","VEREDA_V2":"RUNTA PARTE ALTA","Criterio_u":"Sin acceso definido"}},{"type":"Feature","id":268,"geometry":{"type":"Point","coordinates":[-73.436066322103045,5.4631906082599926]},